{
    "facilities":[
      {"name":"Abdel-Allah Rasi Governmental Hospital","gov":"Akkar","district":"Akkar","lat":34.535815,"lon":36.08858,"type":"Hospital"},
      {"name":"Abrar Medical center - Aazeh","gov":"Bekaa","district":"Rachaya","lat":33.614892,"lon":35.854318,"type":"Medical Center"},
      {"name":"Adam Primary Health Care Medical Center","gov":"Akkar","district":"Akkar","lat":34.58208,"lon":36.047835,"type":"PHCC"},
      {"name":"Advanced Medical Center - Mashta Hassan","gov":"Akkar","district":"Akkar","lat":34.608099,"lon":36.318549,"type":"Medical Center"},
      {"name":"Ain Jerfa health Center","gov":"El Nabatieh","district":"Hasbaya","lat":33.382824,"lon":35.684225,"type":"PHCC"},
      {"name":"Akkar al Atika Governmental Health Center","gov":"Akkar","district":"Akkar","lat":34.530028,"lon":36.233707,"type":"PHCC"},
      {"name":"Al Amir Medical Center","gov":"Akkar","district":"Akkar","lat":34.47545,"lon":36.026494,"type":"Medical Center"},
      {"name":"Al bachaer medical center","gov":"North","district":"Tripoli","lat":34.429911,"lon":35.841427,"type":"Medical Center"},
      {"name":"Al Ekhlas Health Center","gov":"North","district":"Tripoli","lat":34.446278,"lon":35.849441,"type":"PHCC"},
      {"name":"Al ghawth medical center","gov":"North","district":"Tripoli","lat":34.426966,"lon":35.840092,"type":"Medical Center"},
      {"name":"Al Hajj Mehdi Aydi Amel health center - Machghara","gov":"Bekaa","district":"West Bekaa","lat":33.548157,"lon":35.672117,"type":"PHCC"},
      {"name":"Al Iklim PHC Center - Chhim","gov":"Mount Lebanon","district":"Chouf","lat":33.625193,"lon":35.489519,"type":"PHCC"},
      {"name":"Al iman health center - mina","gov":"North","district":"El Minieh-Dennie","lat":34.41052,"lon":36.021809,"type":"PHCC"},
      {"name":"Al Kayan Medical Center - Airport Road","gov":"Mount Lebanon","district":"Baabda","lat":33.850137,"lon":35.499799,"type":"Medical Center"},
      {"name":"Al Kayan Medical Center - Al - Marwanieh","gov":"South","district":"Saida","lat":33.455942,"lon":35.392832,"type":"Medical Center"},
      {"name":"Al Kayan Medical Center - Tyre","gov":"South","district":"Sour","lat":33.281844,"lon":35.216373,"type":"Medical Center"},
      {"name":"Al Najat Medical Center","gov":"Akkar","district":"Akkar","lat":34.519334,"lon":35.98803,"type":"Medical Center"},
      {"name":"Al Tanmiya Health Center","gov":"Akkar","district":"Akkar","lat":34.561302,"lon":36.086856,"type":"PHCC"},
      {"name":"Al Zaharaa clinic Jabal Mohsen","gov":"North","district":"Tripoli","lat":34.445094,"lon":35.856487,"type":"PHCC"},
      {"name":"Ali Al-Nahri Health Center","gov":"Bekaa","district":"Zahle","lat":33.858916,"lon":36.028861,"type":"PHCC"},
      {"name":"Al-Qasr Health Center","gov":"Baalbek-El Hermel","district":"El Hermel","lat":34.478484,"lon":36.440964,"type":"PHCC"},
      {"name":"Al-Rahma Medical Center - Tabbaneh","gov":"North","district":"Tripoli","lat":34.444082,"lon":35.851849,"type":"PHCC"},
      {"name":"Altaybe Health Center","gov":"El Nabatieh","district":"Marjaayoun","lat":33.274675,"lon":35.518556,"type":"PHCC"},
      {"name":"Alzzahraa Health Center - El Nabatiyeh","gov":"El Nabatieh","district":"El Nabatieh","lat":33.400294,"lon":35.452944,"type":"PHCC"},
      {"name":"Amel health center - Bazourieh","gov":"South","district":"Sour","lat":33.259622,"lon":35.272622,"type":"PHCC"},
      {"name":"Armenian General Charitable Medical Center","gov":"Mount Lebanon","district":"El Meten","lat":33.890323,"lon":35.551069,"type":"PHCC"},
      {"name":"AUB Family Medicine Center","gov":"Beirut","district":"Beirut","lat":33.898684,"lon":35.485755,"type":"Medical Center"},
      {"name":"Ayteet family medicine center","gov":"South","district":"Sour","lat":33.224356,"lon":35.30993,"type":"Medical Center"},
      {"name":"Baabda Govermental Hospital","gov":"Mount Lebanon","district":"Baabda","lat":33.835988,"lon":35.538977,"type":"Hospital"},
      {"name":"Baabda Governmental Hospital","gov":"Mount Lebanon","district":"Baabda","lat":33.836019,"lon":35.539004,"type":"Hospital"},
      {"name":"Baalbeck PHC","gov":"Baalbek-El Hermel","district":"Baalbek","lat":34.011839,"lon":36.211944,"type":"PHCC"},
      {"name":"Baalbek Govermantal Hospital","gov":"Baalbek-El Hermel","district":"Baalbek","lat":33.999217,"lon":36.213811,"type":"Hospital"},
      {"name":"Baalbek Governmental Hospital","gov":"Baalbek-El Hermel","district":"Baalbek","lat":33.999204,"lon":36.213784,"type":"Hospital"},
      {"name":"Baalbek Health Center","gov":"Baalbek-El Hermel","district":"Baalbek","lat":33.992878,"lon":36.18925,"type":"PHCC"},
      {"name":"Baarouk Governmental Health Center","gov":"Mount Lebanon","district":"Chouf","lat":33.704609,"lon":35.670677,"type":"PHCC"},
      {"name":"Bachir & Amira Al Khoury Merhi Medical Center","gov":"North","district":"Bcharre","lat":34.251913,"lon":35.985184,"type":"Medical Center"},
      {"name":"Bar Elias Governmental Health Center","gov":"Bekaa","district":"Zahle","lat":33.774061,"lon":35.901089,"type":"PHCC"},
      {"name":"Batoul Health Center","gov":"Baalbek-El Hermel","district":"El Hermel","lat":34.390482,"lon":36.394084,"type":"PHCC"},
      {"name":"Bechari Govermental Hospital","gov":"North","district":"Bcharre","lat":34.250903,"lon":36.010973,"type":"Hospital"},
      {"name":"Bechari Governmental Hospital","gov":"North","district":"Bcharre","lat":34.250903,"lon":36.010973,"type":"Hospital"},
      {"name":"Beit Baakleen Medical Center","gov":"Mount Lebanon","district":"Chouf","lat":33.678016,"lon":35.561699,"type":"Medical Center"},
      {"name":"Beit Eddine Governmental Health Center","gov":"Mount Lebanon","district":"Chouf","lat":33.69501,"lon":35.580868,"type":"PHCC"},
      {"name":"Bhabbouch medico social center","gov":"North","district":"El Koura","lat":34.275637,"lon":35.828066,"type":"Medical Center"},
      {"name":"Bint Jbeil Governmental Hospital","gov":"El Nabatieh","district":"Bent Jbeil","lat":33.127667,"lon":35.435652,"type":"Hospital"},
      {"name":"Bireh Social Health Center - Akkar","gov":"Akkar","district":"Akkar","lat":34.59294,"lon":36.225971,"type":"PHCC"},
      {"name":"Borej Qalaway Health Center","gov":"El Nabatieh","district":"Bent Jbeil","lat":33.268367,"lon":35.423405,"type":"PHCC"},
      {"name":"Borj El-Barjneh Municipality Health Center","gov":"Mount Lebanon","district":"Baabda","lat":33.844539,"lon":35.4986,"type":"PHCC"},
      {"name":"Boudai Health Center","gov":"Baalbek-El Hermel","district":"Baalbek","lat":34.059165,"lon":36.064596,"type":"PHCC"},
      {"name":"Brital Medical Center","gov":"Baalbek-El Hermel","district":"Baalbek","lat":33.936464,"lon":36.147911,"type":"Medical Center"},
      {"name":"Burj el shamali / Al Jalil Health Center","gov":"South","district":"Sour","lat":33.271056,"lon":35.239522,"type":"PHCC"},
      {"name":"Cedars Medical Center - Qnat","gov":"North","district":"Bcharre","lat":34.253023,"lon":35.894043,"type":"Medical Center"},
      {"name":"Chahar Gharbi Govermental Hospital","gov":"Mount Lebanon","district":"Aley","lat":33.754678,"lon":35.544817,"type":"Hospital"},
      {"name":"Chhabieh Health Center - Hayaa","gov":"South","district":"Sour","lat":33.241211,"lon":35.378744,"type":"PHCC"},
      {"name":"Chiyah Municipality Health Center","gov":"Mount Lebanon","district":"Baabda","lat":33.864423,"lon":35.519457,"type":"PHCC"},
      {"name":"Chmestar Governmental Helath Center","gov":"Baalbek-El Hermel","district":"Baalbek","lat":33.965533,"lon":36.023197,"type":"PHCC"},
      {"name":"Daher Bachek Hospital","gov":"Mount Lebanon","district":"El Meten","lat":33.883181,"lon":35.599088,"type":"Hospital"},
      {"name":"Dahr El Maghar Medical Center","gov":"North","district":"Tripoli","lat":34.435181,"lon":35.848469,"type":"PHCC"},
      {"name":"Dar El-Fatwa health center","gov":"Beirut","district":"Beirut","lat":33.888517,"lon":35.488305,"type":"PHCC"},
      {"name":"Deddeh Medical center","gov":"North","district":"El Koura","lat":34.382095,"lon":35.802618,"type":"Medical Center"},
      {"name":"Deir azzahrani health center","gov":"El Nabatieh","district":"El Nabatieh","lat":33.429999,"lon":35.459813,"type":"PHCC"},
      {"name":"Dhour Choueir Primary Health Care Center","gov":"Mount Lebanon","district":"El Meten","lat":33.912021,"lon":35.709203,"type":"PHCC"},
      {"name":"Dr. Fathi Arafat Health Center","gov":"Akkar","district":"Akkar","lat":34.510896,"lon":35.956771,"type":"PHCC"},
      {"name":"Ehden Govermental Hospital","gov":"North","district":"Zgharta","lat":34.290066,"lon":35.968175,"type":"Hospital"},
      {"name":"El Zarif Medical center","gov":"Beirut","district":"Beirut","lat":33.889907,"lon":35.490573,"type":"Medical Center"},
      {"name":"El-Farouk Health Center - Saadneyel","gov":"Bekaa","district":"Zahle","lat":33.823684,"lon":35.878838,"type":"PHCC"},
      {"name":"Elias Hrawi Govermental Hopsital","gov":"Bekaa","district":"Zahle","lat":33.841524,"lon":35.916592,"type":"Hospital"},
      {"name":"Family Care PHC Center","gov":"Mount Lebanon","district":"Baabda","lat":33.836342,"lon":35.517277,"type":"PHCC"},
      {"name":"Ftouh Kesrwan Govermental Hospital","gov":"Mount Lebanon","district":"Kesrwane","lat":34.052863,"lon":35.651609,"type":"Hospital"},
      {"name":"Geitaoui PHC Center","gov":"Beirut","district":"Beirut","lat":33.894027,"lon":35.530576,"type":"PHCC"},
      {"name":"Ghassanieh Health center","gov":"South","district":"Saida","lat":33.419081,"lon":35.360054,"type":"PHCC"},
      {"name":"Ghaza Health Center","gov":"Bekaa","district":"West Bekaa","lat":33.669965,"lon":35.827225,"type":"PHCC"},
      {"name":"Ghazieh health center - elbirr walihsan association","gov":"South","district":"Saida","lat":33.519249,"lon":35.369068,"type":"PHCC"},
      {"name":"Habtoor Health Center - Hrar Akkar","gov":"Akkar","district":"Akkar","lat":34.460902,"lon":36.125863,"type":"PHCC"},
      {"name":"Hanan Medical Center - Mini√©","gov":"North","district":"El Minieh-Dennie","lat":34.491048,"lon":35.935463,"type":"Medical Center"},
      {"name":"Hasbaya Govermental Hospital","gov":"El Nabatieh","district":"Hasbaya","lat":33.403712,"lon":35.688713,"type":"Hospital"},
      {"name":"Haydar khalil health center","gov":"South","district":"Sour","lat":33.263768,"lon":35.300394,"type":"PHCC"},
      {"name":"Health Sector - Akkar","gov":"Akkar","district":"Akkar","lat":34.524961,"lon":36.240711,"type":"Health Sector"},
      {"name":"Health Sector - Alley","gov":"Mount Lebanon","district":"Aley","lat":33.810083,"lon":35.596392,"type":"Health Sector"},
      {"name":"Health Sector - Baabda","gov":"Mount Lebanon","district":"Baabda","lat":33.834941,"lon":35.545514,"type":"Health Sector"},
      {"name":"Health Sector - Baalbeck","gov":"Baalbek-El Hermel","district":"Baalbek","lat":34.005186,"lon":36.207957,"type":"Health Sector"},
      {"name":"Health Sector - Beirut","gov":"Beirut","district":"Beirut","lat":33.888167,"lon":35.500906,"type":"Health Sector"},
      {"name":"Health Sector - Chouf","gov":"Mount Lebanon","district":"Chouf","lat":33.695895,"lon":35.58026,"type":"Health Sector"},
      {"name":"Health Sector - Hasbaya","gov":"El Nabatieh","district":"Hasbaya","lat":33.39893,"lon":35.69206,"type":"Health Sector"},
      {"name":"Health Sector - Hermel","gov":"Baalbek-El Hermel","district":"El Hermel","lat":34.397192,"lon":36.386069,"type":"Health Sector"},
      {"name":"Health Sector - Jbeil","gov":"Mount Lebanon","district":"Jbeil","lat":34.120422,"lon":35.647114,"type":"Health Sector"},
      {"name":"Health Sector - Jezzine","gov":"South","district":"Jezzine","lat":33.542319,"lon":35.58597,"type":"Health Sector"},
      {"name":"Health Sector - Keserwan","gov":"Mount Lebanon","district":"Kesrwane","lat":33.985191,"lon":35.637505,"type":"Health Sector"},
      {"name":"Health Sector - Marjeyoun","gov":"El Nabatieh","district":"Marjaayoun","lat":33.364158,"lon":35.586228,"type":"Health Sector"},
      {"name":"Health Sector - Mennieh/Dennieh","gov":"North","district":"El Minieh-Dennie","lat":34.46394,"lon":35.90165,"type":"Health Sector"},
      {"name":"Health Sector - Metn","gov":"Mount Lebanon","district":"El Meten","lat":33.860216,"lon":35.590463,"type":"Health Sector"},
      {"name":"Health Sector - Nabatieh","gov":"El Nabatieh","district":"El Nabatieh","lat":33.377635,"lon":35.48303,"type":"Health Sector"},
      {"name":"Health Sector - Rachaya","gov":"Bekaa","district":"Rachaya","lat":33.502478,"lon":35.845519,"type":"Health Sector"},
      {"name":"Health Sector - Tripoli","gov":"North","district":"Tripoli","lat":34.430119,"lon":35.852631,"type":"Health Sector"},
      {"name":"Health Sector - West Bekaa","gov":"Bekaa","district":"West Bekaa","lat":33.6668,"lon":35.730308,"type":"Health Sector"},
      {"name":"Health Sector - Zahle","gov":"Bekaa","district":"Zahle","lat":33.849075,"lon":35.902697,"type":"Health Sector"},
      {"name":"Herj Health Center","gov":"Beirut","district":"Beirut","lat":33.877308,"lon":35.505907,"type":"PHCC"},
      {"name":"Hermel Governmental Hospital","gov":"Baalbek-El Hermel","district":"El Hermel","lat":34.381624,"lon":36.424418,"type":"Hospital"},
      {"name":"Hrajel Governmental Health Center","gov":"Mount Lebanon","district":"Kesrwane","lat":34.013569,"lon":35.786604,"type":"PHCC"},
      {"name":"Imam Al Reda Health Center","gov":"Mount Lebanon","district":"Baabda","lat":33.82459,"lon":35.524452,"type":"PHCC"},
      {"name":"Imam Al Sadek Health Center","gov":"Mount Lebanon","district":"Aley","lat":33.816505,"lon":35.511402,"type":"PHCC"},
      {"name":"Imam Al Sadek Health Center - Yammoune","gov":"Baalbek-El Hermel","district":"Baalbek","lat":34.126148,"lon":36.032406,"type":"PHCC"},
      {"name":"Imam Al Sader Foundation - Ayta Alchaab PHC","gov":"El Nabatieh","district":"Bent Jbeil","lat":33.108007,"lon":35.335865,"type":"PHCC"},
      {"name":"Imam Al Sader Foundation - Chhabieh PHC","gov":"South","district":"Sour","lat":33.246059,"lon":35.38317,"type":"PHCC"},
      {"name":"Imam Al Sader Foundation - Deir Serian PHC","gov":"El Nabatieh","district":"Marjaayoun","lat":33.291636,"lon":35.513989,"type":"PHCC"},
      {"name":"Imam Al Sader Foundation - Kafarhatta PHC","gov":"South","district":"Saida","lat":33.50675,"lon":35.45141,"type":"PHCC"},
      {"name":"Imam Al Sader Foundation - Siddikin PHC","gov":"South","district":"Sour","lat":33.193757,"lon":35.307576,"type":"PHCC"},
      {"name":"Imam Khomeini medical center - maachouk","gov":"South","district":"Sour","lat":33.268266,"lon":35.221796,"type":"Medical Center"},
      {"name":"Iman medical center Bebnin","gov":"Akkar","district":"Akkar","lat":34.575791,"lon":36.015799,"type":"Medical Center"},
      {"name":"Iman medical center Sir Danniye","gov":"North","district":"El Minieh-Dennie","lat":34.383868,"lon":36.024541,"type":"Medical Center"},
      {"name":"Iman PHC Center - Aarsal","gov":"Baalbek-El Hermel","district":"Baalbek","lat":34.184673,"lon":36.424812,"type":"PHCC"},
      {"name":"Inaya Health Center","gov":"Bekaa","district":"Rachaya","lat":33.583215,"lon":35.831987,"type":"PHCC"},
      {"name":"Irchad medical center - Berkayel","gov":"Akkar","district":"Akkar","lat":34.482317,"lon":36.031979,"type":"Medical Center"},
      {"name":"Jdeydeh Municipality Health Center","gov":"Mount Lebanon","district":"El Meten","lat":33.892667,"lon":35.563026,"type":"PHCC"},
      {"name":"Jezzine Governmental Hospital","gov":"South","district":"Jezzine","lat":33.538432,"lon":35.580839,"type":"Hospital"},
      {"name":"Kana PHC center","gov":"South","district":"Sour","lat":33.208594,"lon":35.300248,"type":"PHCC"},
      {"name":"Karantina Governmental Hospital","gov":"Beirut","district":"Beirut","lat":33.902464,"lon":35.529415,"type":"Hospital"},
      {"name":"Kefraya Municipality Center - Koura","gov":"North","district":"El Koura","lat":34.294935,"lon":35.723425,"type":"PHCC"},
      {"name":"Ketermaya Health Center","gov":"Mount Lebanon","district":"Chouf","lat":33.614449,"lon":35.454948,"type":"PHCC"},
      {"name":"Kfartoun health center","gov":"Akkar","district":"Akkar","lat":34.566644,"lon":36.359316,"type":"PHCC"},
      {"name":"Khatam EL-Anbia health center","gov":"Beirut","district":"Beirut","lat":33.884747,"lon":35.503067,"type":"PHCC"},
      {"name":"Kherbet Kanafar Govermental Hospital","gov":"Bekaa","district":"West Bekaa","lat":33.640072,"lon":35.726487,"type":"Hospital"},
      {"name":"Khyam health center","gov":"El Nabatieh","district":"Marjaayoun","lat":33.340558,"lon":35.599333,"type":"PHCC"},
      {"name":"Labwe Health Center for Primary Health Care","gov":"Baalbek-El Hermel","district":"Baalbek","lat":34.199112,"lon":36.358596,"type":"PHCC"},
      {"name":"Machaal Health Center","gov":"Bekaa","district":"West Bekaa","lat":33.719668,"lon":35.852741,"type":"PHCC"},
      {"name":"Machghara Governmental Hospital","gov":"Bekaa","district":"West Bekaa","lat":33.54163,"lon":35.643078,"type":"Hospital"},
      {"name":"Machghara PHC Center","gov":"Bekaa","district":"West Bekaa","lat":33.522673,"lon":35.643556,"type":"PHCC"},
      {"name":"Mais Jabal Govermental Hopsital","gov":"El Nabatieh","district":"Marjaayoun","lat":33.17003,"lon":35.520252,"type":"Hospital"},
      {"name":"Makarem Health Center","gov":"North","district":"Tripoli","lat":34.43406,"lon":35.838016,"type":"PHCC"},
      {"name":"Makarem health center - El Mina","gov":"North","district":"Tripoli","lat":34.434501,"lon":35.83859,"type":"PHCC"},
      {"name":"Makarem PHC","gov":"North","district":"Tripoli","lat":34.445088,"lon":35.817011,"type":"PHCC"},
      {"name":"Makhzoumi Medical center in Mazraa","gov":"Beirut","district":"Beirut","lat":33.879332,"lon":35.50235,"type":"Medical Center"},
      {"name":"Malta Social Health Center - Kefraya","gov":"Bekaa","district":"West Bekaa","lat":33.660008,"lon":35.73838,"type":"PHCC"},
      {"name":"Malta Social Health Center - Kobayat","gov":"Akkar","district":"Akkar","lat":34.588287,"lon":36.276245,"type":"PHCC"},
      {"name":"Malta Social Health Center - Roum","gov":"South","district":"Jezzine","lat":33.548594,"lon":35.527584,"type":"PHCC"},
      {"name":"Malta Social Health Organization Center - Al Khalidiya","gov":"North","district":"Zgharta","lat":34.370359,"lon":35.910547,"type":"PHCC"},
      {"name":"Malta Social Health Organization Center - Barqa","gov":"Baalbek-El Hermel","district":"Baalbek","lat":34.182358,"lon":36.15479,"type":"PHCC"},
      {"name":"Malta Social Health Organization Center - Yaroun","gov":"El Nabatieh","district":"Bent Jbeil","lat":33.081898,"lon":35.415739,"type":"PHCC"},
      {"name":"Malta Social Health Organization Center - Zouk Mikael","gov":"Mount Lebanon","district":"Kesrwane","lat":33.96817,"lon":35.611599,"type":"PHCC"},
      {"name":"Maqneh Health Center","gov":"Baalbek-El Hermel","district":"Baalbek","lat":34.079319,"lon":36.207675,"type":"PHCC"},
      {"name":"Marjeoun Govermental Hospital & PHC Center","gov":"El Nabatieh","district":"Marjaayoun","lat":33.367459,"lon":35.587209,"type":"Hospital"},
      {"name":"Mashghara Primary Health Care Center","gov":"Bekaa","district":"West Bekaa","lat":33.532442,"lon":35.65433,"type":"PHCC"},
      {"name":"Mashha charity health center","gov":"Akkar","district":"Akkar","lat":34.539617,"lon":36.114737,"type":"PHCC"},
      {"name":"Maternal &Child care Municipality center/Meshmesh","gov":"Akkar","district":"Akkar","lat":34.47098,"lon":36.173192,"type":"PHCC"},
      {"name":"Mejdlaya PHC","gov":"Mount Lebanon","district":"Aley","lat":33.755896,"lon":35.571875,"type":"PHCC"},
      {"name":"Menieh Governmental Hospital","gov":"North","district":"El Minieh-Dennie","lat":34.472901,"lon":35.915428,"type":"Hospital"},
      {"name":"Meriata - Kadrieh Municipality Health Center","gov":"North","district":"Zgharta","lat":34.417534,"lon":35.92907,"type":"PHCC"},
      {"name":"Mother and Child Care Association Health Center","gov":"Beirut","district":"Beirut","lat":33.887839,"lon":35.485758,"type":"PHCC"},
      {"name":"Nabatieh Govermental Hospital","gov":"El Nabatieh","district":"El Nabatieh","lat":33.389823,"lon":35.482952,"type":"Hospital"},
      {"name":"Nabatieh PHC center","gov":"El Nabatieh","district":"El Nabatieh","lat":33.387805,"lon":35.483319,"type":"PHCC"},
      {"name":"Nabi Cheet Governmental health Center","gov":"Baalbek-El Hermel","district":"Baalbek","lat":33.872358,"lon":36.097153,"type":"PHCC"},
      {"name":"Nazih elbizri medical center","gov":"South","district":"Saida","lat":33.56684,"lon":35.38467,"type":"Medical Center"},
      {"name":"Orange Naso Govermental Hospital","gov":"North","district":"Tripoli","lat":34.442791,"lon":35.838583,"type":"Hospital"},
      {"name":"Qana Govermental Hospital","gov":"South","district":"Sour","lat":33.215925,"lon":35.291415,"type":"Hospital"},
      {"name":"Qartaba Governmental Hospital","gov":"Mount Lebanon","district":"Jbeil","lat":34.09637,"lon":35.850972,"type":"Hospital"},
      {"name":"Rachaia Govermental Hospital","gov":"Bekaa","district":"Rachaya","lat":33.509751,"lon":35.827168,"type":"Hospital"},
      {"name":"Rachaya PHC center","gov":"Bekaa","district":"Rachaya","lat":33.510131,"lon":35.826998,"type":"PHCC"},
      {"name":"Rafic Al Hariri Health Center - Taaneyel","gov":"Bekaa","district":"Zahle","lat":33.801117,"lon":35.868714,"type":"PHCC"},
      {"name":"Rafic Al Hariri Health Center - Chebaa","gov":"El Nabatieh","district":"Hasbaya","lat":33.34968,"lon":35.751298,"type":"PHCC"},
      {"name":"Rafic Al Hariri Health Center - Taaneyel 2","gov":"Bekaa","district":"Zahle","lat":33.782774,"lon":35.888626,"type":"PHCC"},
      {"name":"Rafic Hariri University Hospital & PHC Center","gov":"Mount Lebanon","district":"Baabda","lat":33.864017,"lon":35.489048,"type":"Hospital"},
      {"name":"Ras El-Matn Medical Center","gov":"Mount Lebanon","district":"Baabda","lat":33.848237,"lon":35.657907,"type":"Medical Center"},
      {"name":"Raya Health Center","gov":"Mount Lebanon","district":"Aley","lat":33.76811,"lon":35.50944,"type":"PHCC"},
      {"name":"Remedy Primary Health Care Medical Center","gov":"Akkar","district":"Akkar","lat":34.552708,"lon":36.075562,"type":"PHCC"},
      {"name":"Saida Govermental Hospital","gov":"South","district":"Saida","lat":33.546159,"lon":35.381849,"type":"Hospital"},
      {"name":"Saida Turkish Trauma and Emergency Hospital","gov":"South","district":"Saida","lat":33.584111,"lon":35.388191,"type":"Hospital"},
      {"name":"Saint Antoine Health Center - Achrafieh","gov":"Beirut","district":"Beirut","lat":33.895927,"lon":35.519715,"type":"PHCC"},
      {"name":"Salemtak Health Center","gov":"Akkar","district":"Akkar","lat":34.575791,"lon":36.015799,"type":"PHCC"},
      {"name":"Sawaed Al Aamel Health Center","gov":"Bekaa","district":"Zahle","lat":33.779015,"lon":35.973425,"type":"PHCC"},
      {"name":"Sayed Abdel mohsen fadlallah health center","gov":"El Nabatieh","district":"Bent Jbeil","lat":33.230197,"lon":35.424586,"type":"PHCC"},
      {"name":"Seblin Govermental Hopsital","gov":"Mount Lebanon","district":"Chouf","lat":33.617508,"lon":35.433416,"type":"Hospital"},
      {"name":"Sir Dnieh Govermental Hopsital","gov":"North","district":"El Minieh-Dennie","lat":34.435934,"lon":36.006161,"type":"Hospital"},
      {"name":"Social Medical Center - Gobayri Municipality","gov":"Mount Lebanon","district":"Baabda","lat":33.862592,"lon":35.508951,"type":"Medical Center"},
      {"name":"Socio-Medical Center - Ghadeer","gov":"Mount Lebanon","district":"Kesrwane","lat":33.974678,"lon":35.633314,"type":"Medical Center"},
      {"name":"Srebta health center","gov":"South","district":"Saida","lat":33.452176,"lon":35.300081,"type":"PHCC"},
      {"name":"Taalbaya PHC","gov":"Bekaa","district":"Zahle","lat":33.820807,"lon":35.874414,"type":"PHCC"},
      {"name":"Tamnin Health Center","gov":"Baalbek-El Hermel","district":"Baalbek","lat":33.885608,"lon":35.993489,"type":"PHCC"},
      {"name":"Tanbourit PHC","gov":"South","district":"Saida","lat":33.515804,"lon":35.416055,"type":"PHCC"},
      {"name":"Tanourin Govermental Hospital","gov":"North","district":"El Batroun","lat":34.212814,"lon":35.860946,"type":"Hospital"},
      {"name":"Tebnin Govermental Hospital","gov":"El Nabatieh","district":"Bent Jbeil","lat":33.196922,"lon":35.415576,"type":"Hospital"},
      {"name":"Terbol Governmental Health Center","gov":"Bekaa","district":"Zahle","lat":33.81783,"lon":35.982728,"type":"PHCC"},
      {"name":"The Boulghourjian Socio-Medical Center","gov":"Mount Lebanon","district":"El Meten","lat":33.888646,"lon":35.539278,"type":"Medical Center"},
      {"name":"The Socio medical Center - Abey","gov":"Mount Lebanon","district":"Aley","lat":33.736581,"lon":35.526057,"type":"Medical Center"},
      {"name":"The Socio medical Center - Al Faour","gov":"Bekaa","district":"Zahle","lat":33.795047,"lon":35.957141,"type":"Medical Center"},
      {"name":"The Socio medical Center - Barja","gov":"Mount Lebanon","district":"Chouf","lat":33.652107,"lon":35.440499,"type":"Medical Center"},
      {"name":"The Socio medical Center - Borj El-Barjneh","gov":"Mount Lebanon","district":"Baabda","lat":33.842034,"lon":35.512568,"type":"Medical Center"},
      {"name":"The Socio medical Center - Kfarmatta","gov":"Mount Lebanon","district":"Aley","lat":33.72646,"lon":35.532242,"type":"Medical Center"},
      {"name":"The Socio medical Center - Sawfar","gov":"Mount Lebanon","district":"Aley","lat":33.798752,"lon":35.681397,"type":"Medical Center"},
      {"name":"Tripoli Govermental Hospital","gov":"North","district":"Tripoli","lat":34.437538,"lon":35.860309,"type":"Hospital"},
      {"name":"Tripoli PHC center","gov":"North","district":"Tripoli","lat":34.437538,"lon":35.860309,"type":"PHCC"},
      {"name":"Tyr Govermental Hospital","gov":"South","district":"Sour","lat":33.275921,"lon":35.212841,"type":"Hospital"},
      {"name":"Wadi Khaled Mkasedi Govermental Health Center","gov":"Akkar","district":"Akkar","lat":34.630412,"lon":36.359229,"type":"PHCC"},
      {"name":"Zahrit Sawsan PHC","gov":"North","district":"Tripoli","lat":34.43783,"lon":35.848947,"type":"PHCC"}
    ]
  }
  