[
    {
        "Name_EN":"Beirut",
        "Name_AR":"\u0628\u064a\u0631\u0648\u062a",
        "Phone":"(01)986001   (01)987979",
        "Google_Map_Link":"http:\/\/maps.google.com\/maps?q=33.8989,35.5124",
        "Latitude":33.898316,
        "Longitude":35.505696
    },
    {
        "Name_EN":"Jbail",
        "Name_AR":"\u062c\u0628\u064a\u0644",
        "Phone":"(09)546888",
        "Google_Map_Link":"http:\/\/maps.google.com\/maps?q=34.12042,35.64711",
        "Latitude":34.120428,
        "Longitude":35.649109
    },
    {
        "Name_EN":"Edde",
        "Name_AR":"\u0625\u062f\u0647",
        "Phone":"(09)737350",
        "Google_Map_Link":"http:\/\/maps.google.com\/maps?q=34.13981,35.66345",
        "Latitude":34.139173,
        "Longitude":35.663449
    },
    {
        "Name_EN":"Ehmej",
        "Name_AR":"\u0627\u0647\u0645\u062c",
        "Phone":"(09)504042",
        "Google_Map_Link":"http:\/\/maps.google.com\/maps?q=34.12178,35.78399",
        "Latitude":34.122457,
        "Longitude":35.795534
    },
    {
        "Name_EN":"Bejje",
        "Name_AR":"\u0628\u062c\u0647",
        "Phone":"09770191",
        "Google_Map_Link":"http:\/\/maps.google.com\/maps?q=34.18018,35.71356",
        "Latitude":34.180632,
        "Longitude":35.715666
    },
    {
        "Name_EN":"Blat",
        "Name_AR":"\u0628\u0644\u0627\u0637",
        "Phone":"09546366,09546365",
        "Google_Map_Link":"http:\/\/maps.google.com\/maps?q=34.114,35.66184",
        "Latitude":34.115538,
        "Longitude":35.666177
    },
    {
        "Name_EN":"Tartij",
        "Name_AR":"\u062a\u0631\u062a\u062c",
        "Phone":"(03)829168",
        "Google_Map_Link":"http:\/\/maps.google.com\/maps?q=34.18306,35.82338",
        "Latitude":34.18053,
        "Longitude":35.821243
    },
    {
        "Name_EN":"Jaj",
        "Name_AR":"\u062c\u0627\u062c",
        "Phone":"(09)725600",
        "Google_Map_Link":"http:\/\/maps.google.com\/maps?q=34.16321,35.80605",
        "Latitude":34.163161,
        "Longitude":35.802873
    },
    {
        "Name_EN":"Halat",
        "Name_AR":"\u062d\u0627\u0644\u0627\u062a",
        "Phone":"(09)477450   (09)478450",
        "Google_Map_Link":"http:\/\/maps.google.com\/maps?q=34.0829,35.65269",
        "Latitude":34.090696,
        "Longitude":35.652956
    },
    {
        "Name_EN":"Aaqoura",
        "Name_AR":"\u0639\u0627\u0642\u0648\u0631\u0629",
        "Phone":"09439002",
        "Google_Map_Link":"http:\/\/maps.google.com\/maps?q=34.12157,35.90302",
        "Latitude":34.122108,
        "Longitude":35.90338
    },
    {
        "Name_EN":"Aamchit",
        "Name_AR":"\u0639\u0645\u0634\u064a\u062a",
        "Phone":"(09)620564",
        "Google_Map_Link":"http:\/\/maps.google.com\/maps?q=34.14844,35.64493",
        "Latitude":34.148274,
        "Longitude":35.646609
    },
    {
        "Name_EN":"Aannaya - Kfarbaal  ",
        "Name_AR":"\u0639\u0646\u064e\u0627\u064a\u0627 - \u0643\u0641\u0631 \u0628\u0639\u0627\u0644",
        "Phone":"09760062",
        "Google_Map_Link":"http:\/\/maps.google.com\/maps?q=34.13383,35.84888",
        "Latitude":34.112848,
        "Longitude":35.750953
    },
    {
        "Name_EN":"Fatre",
        "Name_AR":"\u0641\u062a\u0631\u064a",
        "Phone":"(09)420401",
        "Google_Map_Link":"http:\/\/maps.google.com\/maps?q=34.08689,35.70866",
        "Latitude":34.086893,
        "Longitude":35.708946
    },
    {
        "Name_EN":"Fidar",
        "Name_AR":"\u0627\u0644\u0641\u064a\u062f\u0627\u0631",
        "Phone":"09478001",
        "Google_Map_Link":"http:\/\/maps.google.com\/maps?q=34.14608,35.69212",
        "Latitude":null,
        "Longitude":null
    },
    {
        "Name_EN":"Qartaba",
        "Name_AR":"\u0642\u0631\u0637\u0628\u0627",
        "Phone":"(09)405017",
        "Google_Map_Link":"http:\/\/maps.google.com\/maps?q=34.09345,35.84981",
        "Latitude":34.095484,
        "Longitude":35.846215
    },
    {
        "Name_EN":"Lassa",
        "Name_AR":"\u0644\u0627\u0633\u0627",
        "Phone":"(09)415030",
        "Google_Map_Link":"http:\/\/maps.google.com\/maps?q=34.07473,35.85898",
        "Latitude":34.070453,
        "Longitude":35.857547
    },
    {
        "Name_EN":"Ain el Ghouaibe",
        "Name_AR":"\u0639\u064a\u0646 \u0627\u0644\u063a\u0648\u064a\u0628\u0629",
        "Phone":"03869434",
        "Google_Map_Link":"http:\/\/maps.google.com\/maps?q=34.08227,35.86008",
        "Latitude":34.078728,
        "Longitude":35.865503
    },
    {
        "Name_EN":"Laqlouq",
        "Name_AR":"\u0627\u0644\u0644\u0642\u0644\u0648\u0642",
        "Phone":"03417031",
        "Google_Map_Link":"http:\/\/maps.google.com\/maps?q=34.13399,35.86024",
        "Latitude":null,
        "Longitude":null
    },
    {
        "Name_EN":"Mghaira",
        "Name_AR":"\u0645\u063a\u064a\u0631\u0647",
        "Phone":"03203970",
        "Google_Map_Link":"http:\/\/maps.google.com\/maps?q=34.09784,35.87104",
        "Latitude":null,
        "Longitude":null
    },
    {
        "Name_EN":"Monsef",
        "Name_AR":"\u0627\u0644\u0645\u0646\u0635\u0641",
        "Phone":"(09)790812",
        "Google_Map_Link":"http:\/\/maps.google.com\/maps?q=34.17808,35.64944",
        "Latitude":34.1758,
        "Longitude":35.652453
    },
    {
        "Name_EN":"Maifouq - Qattara",
        "Name_AR":"\u0645\u064a\u0641\u0648\u0642 - \u0642\u0637\u0627\u0631\u0629",
        "Phone":"(09)765500",
        "Google_Map_Link":"http:\/\/maps.google.com\/maps?q=34.18163,35.77375",
        "Latitude":34.18288,
        "Longitude":35.781673
    },
    {
        "Name_EN":"Nahrh Ibrahim",
        "Name_AR":"\u0646\u0647\u0631 \u0627\u0628\u0631\u0627\u0647\u064a\u0645",
        "Phone":"09446300",
        "Google_Map_Link":"http:\/\/maps.google.com\/maps?q=34.06469,35.64741",
        "Latitude":null,
        "Longitude":null
    },
    {
        "Name_EN":"Lehfed",
        "Name_AR":"\u0644\u062d\u0641\u062f",
        "Phone":"09725777",
        "Google_Map_Link":"http:\/\/maps.google.com\/maps?q=34.16439,35.77551",
        "Latitude":34.163989,
        "Longitude":35.777929
    },
    {
        "Name_EN":"Majdel",
        "Name_AR":"\u0627\u0644\u0645\u062c\u062f\u0644",
        "Phone":"09448878",
        "Google_Map_Link":"http:\/\/maps.google.com\/maps?q=34.10643,35.89766",
        "Latitude":34.092802,
        "Longitude":35.891317
    },
    {
        "Name_EN":"Yanouh - Hedayne",
        "Name_AR":"\u064a\u0627\u0646\u0648\u062d - \u0647\u062f\u064a\u0646\u0629",
        "Phone":"03285805",
        "Google_Map_Link":"http:\/\/maps.google.com\/maps?q=34.09777,35.88377",
        "Latitude":34.094041,
        "Longitude":35.880872
    },
    {
        "Name_EN":"Mazraat Es Siyad",
        "Name_AR":"\u0645\u0632\u0631\u0639\u0629 \u0627\u0644\u0633\u064a\u0627\u062f",
        "Phone":"09406090",
        "Google_Map_Link":"http:\/\/maps.google.com\/maps?q=34.10562,35.86108",
        "Latitude":34.103038,
        "Longitude":35.856838
    },
    {
        "Name_EN":"Ras Osta",
        "Name_AR":"\u0631\u0627\u0633 \u0627\u0633\u0637\u0627",
        "Phone":"09790602",
        "Google_Map_Link":"http:\/\/maps.google.com\/maps?q=34.11493,35.72236",
        "Latitude":34.114953,
        "Longitude":35.723607
    },
    {
        "Name_EN":"Mechane",
        "Name_AR":"\u0645\u0634\u0627\u0646",
        "Phone":"03576931",
        "Google_Map_Link":"http:\/\/maps.google.com\/maps?q=34.08472,35.75574",
        "Latitude":34.081339,
        "Longitude":35.747728
    },
    {
        "Name_EN":"Hjoula",
        "Name_AR":"\u062d\u062c\u0648\u0644\u0627",
        "Phone":"03665918",
        "Google_Map_Link":"http:\/\/maps.google.com\/maps?q=34.13232,35.74515",
        "Latitude":34.131704,
        "Longitude":35.741937
    },
    {
        "Name_EN":"El Houssoun",
        "Name_AR":"\u062d\u0635\u0648\u0646",
        "Phone":"09420303",
        "Google_Map_Link":"http:\/\/maps.google.com\/maps?q=34.09283,35.73552",
        "Latitude":34.092756,
        "Longitude":35.735847
    },
    {
        "Name_EN":"Hosrayel",
        "Name_AR":"\u062d\u0635\u0631\u0627\u064a\u0644",
        "Phone":"03863344",
        "Google_Map_Link":"http:\/\/maps.google.com\/maps?q=34.15859,35.65539",
        "Latitude":34.157143,
        "Longitude":35.635649
    },
    {
        "Name_EN":"Barbara",
        "Name_AR":"\u0628\u0631\u0628\u0627\u0631\u0629",
        "Phone":"09750188",
        "Google_Map_Link":"http:\/\/maps.google.com\/maps?q=34.19357,35.64734",
        "Latitude":34.194284,
        "Longitude":35.647846
    },
    {
        "Name_EN":"Bechtelida - Fidar",
        "Name_AR":"\u0628\u0634\u062a\u0644\u064a\u062f\u0627 - \u0627\u0644\u0641\u064a\u062f\u0627\u0631",
        "Phone":"(09)478001",
        "Google_Map_Link":"http:\/\/maps.google.com\/maps?q=34.13247,35.72267",
        "Latitude":34.099952,
        "Longitude":35.649953
    },
    {
        "Name_EN":"Afqa",
        "Name_AR":"\u0627\u0641\u0642\u0627",
        "Phone":"03882744",
        "Google_Map_Link":"http:\/\/maps.google.com\/maps?q=34.06965,35.88516",
        "Latitude":34.064618,
        "Longitude":35.900344
    },
    {
        "Name_EN":"Almat Ej Jnoubiye - ech Chemaliye - Ain Souane",
        "Name_AR":"\u0639\u0644\u0645\u0627\u062a \u0627\u0644\u062c\u0646\u0648\u0628\u064a\u0629 - \u0627\u0644\u0634\u0645\u0627\u0644\u064a\u0629 - \u0639\u064a\u0646 \u0627\u0644\u0635\u0648\u0627\u0646\u0629 ",
        "Phone":"03716563",
        "Google_Map_Link":"http:\/\/maps.google.com\/maps?q=34.10984,35.77696",
        "Latitude":34.108139,
        "Longitude":35.780699
    },
    {
        "Name_EN":"MechMech Jbeil",
        "Name_AR":"\u0645\u0634\u0645\u0634 \u062c\u0628\u064a\u0644",
        "Phone":"09760400",
        "Google_Map_Link":"http:\/\/maps.google.com\/maps?q=34.14647,35.77989",
        "Latitude":34.145643,
        "Longitude":35.78148
    },
    {
        "Name_EN":"Ghabate - Rouaiss",
        "Name_AR":"\u063a\u0627\u0628\u0627\u062a - \u0631\u0648\u064a\u0633",
        "Phone":"03591010",
        "Google_Map_Link":"http:\/\/maps.google.com\/maps?q=34.08245,35.87296",
        "Latitude":34.082495,
        "Longitude":35.873983
    },
    {
        "Name_EN":"Ghalboun",
        "Name_AR":"\u063a\u0644\u0628\u0648\u0646",
        "Phone":"03305077",
        "Google_Map_Link":"http:\/\/maps.google.com\/maps?q=34.17524,35.70102",
        "Latitude":34.174676,
        "Longitude":35.700427
    },
    {
        "Name_EN":"Jounieh",
        "Name_AR":"\u062c\u0648\u0646\u064a\u0647",
        "Phone":"(09)913000",
        "Google_Map_Link":"http:\/\/maps.google.com\/maps?q=33.98231,35.63818",
        "Latitude":33.985322,
        "Longitude":35.63391
    },
    {
        "Name_EN":"Balloune",
        "Name_AR":"\u0628\u0644\u0648\u0646\u0629",
        "Phone":"(09)231119  (09)231118   (03)318209",
        "Google_Map_Link":"http:\/\/maps.google.com\/maps?q=33.94877,35.67224",
        "Latitude":33.953446,
        "Longitude":35.671838
    },
    {
        "Name_EN":"Bouar",
        "Name_AR":"\u0628\u0648\u0627\u0631",
        "Phone":"(09)447770",
        "Google_Map_Link":"http:\/\/maps.google.com\/maps?q=34.04572,35.63124",
        "Latitude":34.045926,
        "Longitude":35.641209
    },
    {
        "Name_EN":"Jdaidet Ghazir",
        "Name_AR":"\u062c\u062f\u064a\u062f\u0629 \u063a\u0632\u064a\u0631",
        "Phone":"09925014",
        "Google_Map_Link":"http:\/\/maps.google.com\/maps?q=34.02226,35.69207",
        "Latitude":null,
        "Longitude":null
    },
    {
        "Name_EN":"Jitta",
        "Name_AR":"\u062c\u0639\u064a\u062a\u0627",
        "Phone":"(09)234219   (03)751774",
        "Google_Map_Link":"http:\/\/maps.google.com\/maps?q=33.95353,35.64255",
        "Latitude":33.955011,
        "Longitude":35.650009
    },
    {
        "Name_EN":"Jouret Bedrane",
        "Name_AR":"\u062c\u0648\u0631\u0629 \u0628\u062f\u0631\u0627\u0646",
        "Phone":"03622132",
        "Google_Map_Link":"http:\/\/maps.google.com\/maps?q=34.06225,35.71188",
        "Latitude":34.063579,
        "Longitude":35.71479
    },
    {
        "Name_EN":"Jouret Et Tormoss",
        "Name_AR":"\u062c\u0648\u0631\u0629 \u0627\u0644\u062a\u0631\u0645\u0633",
        "Phone":"(03)652696",
        "Google_Map_Link":"http:\/\/maps.google.com\/maps?q=34.04462,35.71904",
        "Latitude":34.04552,
        "Longitude":35.720272
    },
    {
        "Name_EN":"Hrajel",
        "Name_AR":"\u062d\u0631\u0627\u062c\u0644",
        "Phone":"(09)323056",
        "Google_Map_Link":"http:\/\/maps.google.com\/maps?q=34.01731,35.79254",
        "Latitude":34.01785,
        "Longitude":35.791093
    },
    {
        "Name_EN":"Hsayn",
        "Name_AR":"\u062d\u0635\u064a\u0646",
        "Phone":"(03)816470",
        "Google_Map_Link":"http:\/\/maps.google.com\/maps?q=34.04911,35.71143",
        "Latitude":34.050301,
        "Longitude":35.711333
    },
    {
        "Name_EN":"Hayata",
        "Name_AR":"\u062d\u064a\u0627\u0637\u0629",
        "Phone":"(09)780532",
        "Google_Map_Link":"http:\/\/maps.google.com\/maps?q=34.0251,35.71767",
        "Latitude":34.025556,
        "Longitude":35.722143
    },
    {
        "Name_EN":"Darayia Kesrwane",
        "Name_AR":"\u062f\u0627\u0631\u064a\u0627 \u0643\u0633\u0631\u0648\u0627\u0646",
        "Phone":"(09)956197\/347",
        "Google_Map_Link":"http:\/\/maps.google.com\/maps?q=33.95517,35.69826",
        "Latitude":33.955387,
        "Longitude":35.699478
    },
    {
        "Name_EN":"Daraaoun - Harissa",
        "Name_AR":"\u062f\u0631\u0639\u0648\u0646 - \u062d\u0631\u064a\u0635\u0627",
        "Phone":"(09)261300",
        "Google_Map_Link":"http:\/\/maps.google.com\/maps?q=33.9768,35.65802",
        "Latitude":33.977739,
        "Longitude":35.660868
    },
    {
        "Name_EN":"Delbta",
        "Name_AR":"\u062f\u0644\u0628\u062a\u0627",
        "Phone":"(09)925315",
        "Google_Map_Link":"http:\/\/maps.google.com\/maps?q=34.00798,35.68806",
        "Latitude":34.008881,
        "Longitude":35.691893
    },
    {
        "Name_EN":"Zouk Mosbeh",
        "Name_AR":"\u0630\u0648\u0642 \u0645\u0635\u0628\u062d",
        "Phone":"(09)218933",
        "Google_Map_Link":"http:\/\/maps.google.com\/maps?q=33.95574,35.61911",
        "Latitude":33.955733,
        "Longitude":35.619054
    },
    {
        "Name_EN":"Zouq Mkayel",
        "Name_AR":"\u0630\u0648\u0642 \u0645\u0643\u0627\u064a\u0644",
        "Phone":"(09)212213\/4\/5\/6",
        "Google_Map_Link":"http:\/\/maps.google.com\/maps?q=33.97012,35.61965",
        "Latitude":33.969082,
        "Longitude":35.624762
    },
    {
        "Name_EN":"Raashine",
        "Name_AR":"\u0631\u0639\u0634\u064a\u0646",
        "Phone":"03460030",
        "Google_Map_Link":"http:\/\/maps.google.com\/maps?q=34.01221,35.71912",
        "Latitude":34.010445,
        "Longitude":35.719348
    },
    {
        "Name_EN":"Raifoun",
        "Name_AR":"\u0631\u064a\u0641\u0648\u0646",
        "Phone":"(09)952001   (09)950255",
        "Google_Map_Link":"http:\/\/maps.google.com\/maps?q=33.97735,35.70288",
        "Latitude":33.977914,
        "Longitude":35.702262
    },
    {
        "Name_EN":"Shaile",
        "Name_AR":"\u0633\u0647\u064a\u0644\u0629",
        "Phone":"(09)233448   (09)235210",
        "Google_Map_Link":"http:\/\/maps.google.com\/maps?q=33.95699,35.65481",
        "Latitude":33.96048,
        "Longitude":35.663477
    },
    {
        "Name_EN":"Chnanaair",
        "Name_AR":"\u0634\u0646\u0646\u0639\u064a\u0631",
        "Phone":"(09)925400",
        "Google_Map_Link":"http:\/\/maps.google.com\/maps?q=34.00702,35.66919",
        "Latitude":34.008792,
        "Longitude":35.667567
    },
    {
        "Name_EN":"Safra kesrwane",
        "Name_AR":"\u0635\u0641\u0631\u0627 \u0643\u0633\u0631\u0648\u0627\u0646",
        "Phone":"(09)851230",
        "Google_Map_Link":"http:\/\/maps.google.com\/maps?q=34.0387,35.64048",
        "Latitude":34.039051,
        "Longitude":35.629879
    },
    {
        "Name_EN":"Tabarja - Kfar Yassine",
        "Name_AR":"\u0637\u0628\u0631\u062c\u0627 - \u0643\u0641\u0631 \u064a\u0627\u0633\u064a\u0646",
        "Phone":"(09)850572  (09)850573",
        "Google_Map_Link":"http:\/\/maps.google.com\/maps?q=34.03049,35.62905",
        "Latitude":34.030784,
        "Longitude":35.628704
    },
    {
        "Name_EN":"Aajaltoun",
        "Name_AR":"\u0639\u062c\u0644\u062a\u0648\u0646",
        "Phone":"(09)232448\/7",
        "Google_Map_Link":"http:\/\/maps.google.com\/maps?q=33.9659,35.67988",
        "Latitude":33.965241,
        "Longitude":35.682771
    },
    {
        "Name_EN":"El Aazra et el Aazr",
        "Name_AR":"\u0639\u0630\u0631\u0647 \u0648\u0627\u0644\u0639\u0630\u0631",
        "Phone":"09780914",
        "Google_Map_Link":"http:\/\/maps.google.com\/maps?q=34.06306,35.703",
        "Latitude":34.063914,
        "Longitude":35.709611
    },
    {
        "Name_EN":"Aaramoun Kesrwane",
        "Name_AR":"\u0639\u0631\u0645\u0648\u0646 \u0643\u0633\u0631\u0648\u0627\u0646",
        "Phone":"09926155",
        "Google_Map_Link":"http:\/\/maps.google.com\/maps?q=34.0201,35.70079",
        "Latitude":34.020134,
        "Longitude":35.698059
    },
    {
        "Name_EN":"Aachqout",
        "Name_AR":"\u0639\u0634\u0642\u0648\u062a",
        "Phone":"(09)957888   (09)957800",
        "Google_Map_Link":"http:\/\/maps.google.com\/maps?q=33.98954,35.70471",
        "Latitude":33.989586,
        "Longitude":35.707416
    },
    {
        "Name_EN":"El Aaqaybe Kesrouane",
        "Name_AR":"\u0639\u0642\u064a\u0628\u0629",
        "Phone":"09446456",
        "Google_Map_Link":"http:\/\/maps.google.com\/maps?q=34.05755,35.64224",
        "Latitude":34.049067,
        "Longitude":35.64471
    },
    {
        "Name_EN":"Ain Er Rihane",
        "Name_AR":"\u0639\u064a\u0646 \u0627\u0644\u0631\u064a\u062d\u0627\u0646",
        "Phone":"(09)234953",
        "Google_Map_Link":"http:\/\/maps.google.com\/maps?q=33.95799,35.6444",
        "Latitude":33.95728,
        "Longitude":35.645164
    },
    {
        "Name_EN":"Aintoura",
        "Name_AR":"\u0639\u064a\u0646\u0637\u0648\u0631\u0629",
        "Phone":"(09)234666",
        "Google_Map_Link":"http:\/\/maps.google.com\/maps?q=33.95892,35.63398",
        "Latitude":33.961661,
        "Longitude":35.632239
    },
    {
        "Name_EN":"Ghbale",
        "Name_AR":"\u063a\u0628\u0627\u0644\u0629 ",
        "Phone":"(09)860263",
        "Google_Map_Link":"http:\/\/maps.google.com\/maps?q=34.05345,35.72255",
        "Latitude":34.055474,
        "Longitude":35.720123
    },
    {
        "Name_EN":"Ghazir",
        "Name_AR":"\u063a\u0632\u064a\u0631",
        "Phone":"(09)926809   (09)920955  (09)925012",
        "Google_Map_Link":"http:\/\/maps.google.com\/maps?q=34.01872,35.66896",
        "Latitude":34.018708,
        "Longitude":35.668711
    },
    {
        "Name_EN":"Ghosta",
        "Name_AR":"\u063a\u0648\u0633\u0637\u0627",
        "Phone":"09262705",
        "Google_Map_Link":"http:\/\/maps.google.com\/maps?q=33.98838,35.6713",
        "Latitude":33.987776,
        "Longitude":35.664073
    },
    {
        "Name_EN":"Ghine",
        "Name_AR":"\u063a\u064a\u0646\u0629",
        "Phone":"(09)780896",
        "Google_Map_Link":"http:\/\/maps.google.com\/maps?q=34.03853,35.70849",
        "Latitude":34.039258,
        "Longitude":35.710093
    },
    {
        "Name_EN":"Faraiya",
        "Name_AR":"\u0641\u0627\u0631\u064a\u0627",
        "Phone":"(09)321429",
        "Google_Map_Link":"http:\/\/maps.google.com\/maps?q=34.01612,35.81934",
        "Latitude":34.016339,
        "Longitude":35.818015
    },
    {
        "Name_EN":"Faitroun",
        "Name_AR":"\u0641\u064a\u0637\u0631\u0648\u0646",
        "Phone":"(09)950490",
        "Google_Map_Link":"http:\/\/maps.google.com\/maps?q=33.98832,35.72774",
        "Latitude":33.988704,
        "Longitude":35.727738
    },
    {
        "Name_EN":"Qlaiaat",
        "Name_AR":"\u0642\u0644\u064a\u0639\u0627\u062a \u0643\u0633\u0631\u0648\u0627\u0646",
        "Phone":"(09)952757",
        "Google_Map_Link":"http:\/\/maps.google.com\/maps?q=33.97223,35.7128",
        "Latitude":33.971732,
        "Longitude":35.712831
    },
    {
        "Name_EN":"Kfardibiane",
        "Name_AR":"\u0643\u0641\u0631 \u062f\u0628\u064a\u0627\u0646",
        "Phone":"(09)710160",
        "Google_Map_Link":"http:\/\/maps.google.com\/maps?q=33.98276,35.7622",
        "Latitude":33.986487,
        "Longitude":35.770993
    },
    {
        "Name_EN":"Kfour",
        "Name_AR":"\u0627\u0644\u0643\u0641\u0648\u0631",
        "Phone":"(09)788707",
        "Google_Map_Link":"http:\/\/maps.google.com\/maps?q=34.03143,35.69364",
        "Latitude":34.0359,
        "Longitude":35.693722
    },
    {
        "Name_EN":"Mairouba",
        "Name_AR":"\u0645\u064a\u0631\u0648\u0628\u0627",
        "Phone":"09330500",
        "Google_Map_Link":"http:\/\/maps.google.com\/maps?q=34.01439,35.7735",
        "Latitude":34.014378,
        "Longitude":35.773272
    },
    {
        "Name_EN":"Yahchouch",
        "Name_AR":"\u064a\u062d\u0634\u0648\u0634",
        "Phone":"(09)865420",
        "Google_Map_Link":"http:\/\/maps.google.com\/maps?q=34.06668,35.73532",
        "Latitude":34.063854,
        "Longitude":35.735907
    },
    {
        "Name_EN":"Maaysra",
        "Name_AR":"\u0627\u0644\u0645\u0639\u064a\u0635\u0631\u0629",
        "Phone":"03947747",
        "Google_Map_Link":"http:\/\/maps.google.com\/maps?q=34.07104,35.68524",
        "Latitude":34.07173,
        "Longitude":35.687528
    },
    {
        "Name_EN":"Beqaatet Aachqout",
        "Name_AR":"\u0628\u0642\u0639\u0627\u062a\u0629 \u0639\u0634\u0642\u0648\u062a",
        "Phone":"09955700",
        "Google_Map_Link":"http:\/\/maps.google.com\/maps?q=34.00263,35.72696",
        "Latitude":34.0032,
        "Longitude":35.726911
    },
    {
        "Name_EN":"Ouata Ej Jaouz",
        "Name_AR":"\u0648\u0637\u0649 \u0627\u0644\u062c\u0648\u0632",
        "Phone":"03125111",
        "Google_Map_Link":"http:\/\/maps.google.com\/maps?q=34.02682,35.75787",
        "Latitude":34.012461,
        "Longitude":35.759201
    },
    {
        "Name_EN":"Zaaitra",
        "Name_AR":"\u0632\u0639\u064a\u062a\u0631\u0647",
        "Phone":"03285570",
        "Google_Map_Link":"http:\/\/maps.google.com\/maps?q=34.07017,35.6954",
        "Latitude":34.070096,
        "Longitude":35.699283
    },
    {
        "Name_EN":"Fatqa",
        "Name_AR":"\u0641\u062a\u0642\u0627",
        "Phone":"09740630",
        "Google_Map_Link":"http:\/\/maps.google.com\/maps?q=34.0333,35.66446",
        "Latitude":34.033025,
        "Longitude":35.66557
    },
    {
        "Name_EN":"Chahtoul - Jouret Mhad",
        "Name_AR":"\u0634\u062d\u062a\u0648\u0644 - \u062c\u0648\u0631\u0629 \u0645\u0647\u0627\u062f",
        "Phone":"09780839",
        "Google_Map_Link":"http:\/\/maps.google.com\/maps?q=34.03252,35.7196",
        "Latitude":34.035732,
        "Longitude":35.726027
    },
    {
        "Name_EN":"Batha",
        "Name_AR":"\u0628\u0637\u062d\u0627",
        "Phone":"09260100",
        "Google_Map_Link":"http:\/\/maps.google.com\/maps?q=33.98973,35.66149",
        "Latitude":null,
        "Longitude":null
    },
    {
        "Name_EN":"Zeitoun",
        "Name_AR":"\u0632\u064a\u062a\u0648\u0646",
        "Phone":"03371508",
        "Google_Map_Link":"http:\/\/maps.google.com\/maps?q=34.06179,35.68317",
        "Latitude":34.062256,
        "Longitude":35.688332
    },
    {
        "Name_EN":"Ghadras",
        "Name_AR":"\u063a\u062f\u0631\u0627\u0633",
        "Phone":"70985602",
        "Google_Map_Link":"http:\/\/maps.google.com\/maps?q=34.04432,35.67817",
        "Latitude":34.044106,
        "Longitude":35.683455
    },
    {
        "Name_EN":"Bqaatouta",
        "Name_AR":"\u0628\u0642\u0639\u062a\u0648\u062a\u0627",
        "Phone":"03642022",
        "Google_Map_Link":"http:\/\/maps.google.com\/maps?q=33.97211,35.77075",
        "Latitude":null,
        "Longitude":null
    },
    {
        "Name_EN":"Kfar Tay",
        "Name_AR":"\u0643\u0641\u0631\u062a\u064a\u0647",
        "Phone":"(04)280209",
        "Google_Map_Link":"http:\/\/maps.google.com\/maps?q=33.96307,35.74698",
        "Latitude":33.955844,
        "Longitude":35.761751
    },
    {
        "Name_EN":"Bzoummar",
        "Name_AR":"\u0628\u0632\u0645\u0627\u0631",
        "Phone":"03610188",
        "Google_Map_Link":"http:\/\/maps.google.com\/maps?q=33.98821,35.68268",
        "Latitude":33.986932,
        "Longitude":35.683414
    },
    {
        "Name_EN":"Edma et Dafne",
        "Name_AR":"\u0623\u062f\u0645\u0627 \u0648\u0627\u0644\u062f\u0641\u0646\u0647",
        "Phone":"03629449",
        "Google_Map_Link":"http:\/\/maps.google.com\/maps?q=34.02195,35.64276",
        "Latitude":34.024947,
        "Longitude":35.634914
    },
    {
        "Name_EN":"Jdaide - Baouchriye - Sad el Baouchriye",
        "Name_AR":"\u062c\u062f\u064a\u062f\u0629 - \u0628\u0648\u0634\u0631\u064a\u0629 - \u0633\u062f \u0627\u0644\u0628\u0648\u0634\u0631\u064a\u0629",
        "Phone":"(01)892600",
        "Google_Map_Link":"http:\/\/maps.google.com\/maps?q=33.89033,35.56628",
        "Latitude":33.894202,
        "Longitude":35.562112
    },
    {
        "Name_EN":"Antelias - Naqqach",
        "Name_AR":"\u0627\u0646\u0637\u0644\u064a\u0627\u0633 - \u0646\u0642\u0627\u0634",
        "Phone":"(04)413360",
        "Google_Map_Link":"http:\/\/maps.google.com\/maps?q=33.91484,35.59209",
        "Latitude":33.913904,
        "Longitude":35.592855
    },
    {
        "Name_EN":"Bteghrine",
        "Name_AR":"\u0628\u062a\u063a\u0631\u064a\u0646",
        "Phone":"(04)273270",
        "Google_Map_Link":"http:\/\/maps.google.com\/maps?q=33.92864,35.747",
        "Latitude":33.928438,
        "Longitude":35.748668
    },
    {
        "Name_EN":"Borj Hammoud",
        "Name_AR":"\u0628\u0631\u062c \u062d\u0645\u0651\u0648\u062f",
        "Phone":"(01)262806    (01)256404",
        "Google_Map_Link":"http:\/\/maps.google.com\/maps?q=33.88768,35.54119",
        "Latitude":33.894435,
        "Longitude":35.540971
    },
    {
        "Name_EN":"Broumana",
        "Name_AR":"\u0628\u0631\u0645\u0627\u0646\u0627 \u0627\u0644\u0645\u062a\u0646",
        "Phone":"(04)960416  (04)862000",
        "Google_Map_Link":"http:\/\/maps.google.com\/maps?q=33.88512,35.63304",
        "Latitude":33.882818,
        "Longitude":35.627419
    },
    {
        "Name_EN":"Baskinta",
        "Name_AR":"\u0628\u0633\u0643\u0646\u062a\u0627",
        "Phone":"(04)288293",
        "Google_Map_Link":"http:\/\/maps.google.com\/maps?q=33.94393,35.7891",
        "Latitude":33.943849,
        "Longitude":35.792723
    },
    {
        "Name_EN":"Bsalim - Majzoub - Mezher",
        "Name_AR":"\u0628\u0635\u0627\u0644\u064a\u0645 - \u0645\u062c\u0630\u0648\u0628 - \u0645\u0632\u0647\u0631",
        "Phone":"(04)715200\/300",
        "Google_Map_Link":"http:\/\/maps.google.com\/maps?q=33.90104,35.6036",
        "Latitude":33.899675,
        "Longitude":35.603491
    },
    {
        "Name_EN":"Baabdat",
        "Name_AR":"\u0628\u0639\u0628\u062f\u0627\u062a",
        "Phone":"(04)820097    (04)820400",
        "Google_Map_Link":"http:\/\/maps.google.com\/maps?q=33.89145,35.66851",
        "Latitude":33.890866,
        "Longitude":35.673141
    },
    {
        "Name_EN":"Bikfayia - Mhaydse",
        "Name_AR":"\u0628\u0643\u0641\u064a\u0627 - \u0645\u062d\u064a\u062f\u062b\u0629",
        "Phone":"(04)981049",
        "Google_Map_Link":"http:\/\/maps.google.com\/maps?q=33.92402,35.68279",
        "Latitude":33.922709,
        "Longitude":35.683019
    },
    {
        "Name_EN":"Biaqout",
        "Name_AR":"\u0628\u064a\u0627\u0642\u0648\u062a",
        "Phone":"(03)341741",
        "Google_Map_Link":"http:\/\/maps.google.com\/maps?q=33.89401,35.58463",
        "Latitude":33.897444,
        "Longitude":35.589058
    },
    {
        "Name_EN":"Beit Chebab - Chaouiye - Qnaitra",
        "Name_AR":"\u0628\u064a\u062a \u0634\u0628\u0627\u0628 - \u0634\u0627\u0648\u064a\u0629 - \u0642\u0646\u064a\u0637\u0631\u0629",
        "Phone":"03212789",
        "Google_Map_Link":"http:\/\/maps.google.com\/maps?q=33.92921,35.67216",
        "Latitude":33.928566,
        "Longitude":35.671596
    },
    {
        "Name_EN":"Beit Ech-Chaar - Mazraat El Hdaira",
        "Name_AR":"\u0628\u064a\u062a \u0627\u0644\u0634\u0639\u0651\u0627\u0631 - \u0645\u0632\u0631\u0639\u0629 \u0627\u0644\u062d\u0636\u064a\u0631\u0629",
        "Phone":"(04)926077",
        "Google_Map_Link":"http:\/\/maps.google.com\/maps?q=33.92802,35.61668",
        "Latitude":33.928542,
        "Longitude":35.618806
    },
    {
        "Name_EN":"Ain Saade",
        "Name_AR":"\u0639\u064a\u0646 \u0633\u0639\u0627\u062f\u0629",
        "Phone":"04870562",
        "Google_Map_Link":"http:\/\/maps.google.com\/maps?q=33.86361,35.59559",
        "Latitude":null,
        "Longitude":null
    },
    {
        "Name_EN":"Bqennaya - Jall Ed Dib",
        "Name_AR":"\u062c\u0644 \u0627\u0644\u062f\u064a\u0628 - \u0628\u0642\u0646\u0627\u064a\u0627",
        "Phone":"(04)712064\/5",
        "Google_Map_Link":"http:\/\/maps.google.com\/maps?q=33.90237,35.58787",
        "Latitude":33.906515,
        "Longitude":35.583444
    },
    {
        "Name_EN":"Khenchara - Jouar",
        "Name_AR":"\u062e\u0646\u0634\u0627\u0631\u0629 - \u062c\u0648\u0627\u0631",
        "Phone":"(04)270533",
        "Google_Map_Link":"http:\/\/maps.google.com\/maps?q=33.92511,35.74004",
        "Latitude":33.924305,
        "Longitude":35.738097
    },
    {
        "Name_EN":"Dekouane",
        "Name_AR":"\u062f\u0643\u0648\u0627\u0646\u0629",
        "Phone":"(01)682510",
        "Google_Map_Link":"http:\/\/maps.google.com\/maps?q=33.87615,35.54903",
        "Latitude":33.878227,
        "Longitude":35.549444
    },
    {
        "Name_EN":"Douar",
        "Name_AR":"\u062f\u0648\u0627\u0631",
        "Phone":"(04)391440     (03)861985",
        "Google_Map_Link":"http:\/\/maps.google.com\/maps?q=33.90736,35.69763",
        "Latitude":33.905178,
        "Longitude":35.700096
    },
    {
        "Name_EN":"Er Rabie",
        "Name_AR":"\u0631\u0627\u0628\u064a\u0647",
        "Phone":"03610064",
        "Google_Map_Link":"http:\/\/maps.google.com\/maps?q=33.92379,35.61489",
        "Latitude":33.919938,
        "Longitude":35.603041
    },
    {
        "Name_EN":"Roumie",
        "Name_AR":"\u0631\u0648\u0645\u064a\u0647 \u0627\u0644\u0645\u062a\u0646",
        "Phone":"(04)860002  (03)301706",
        "Google_Map_Link":"http:\/\/maps.google.com\/maps?q=33.88355,35.61943",
        "Latitude":33.881977,
        "Longitude":35.61261
    },
    {
        "Name_EN":"Zaraaoun",
        "Name_AR":"\u0632\u0631\u0639\u0648\u0646",
        "Phone":"(04)391365",
        "Google_Map_Link":"http:\/\/maps.google.com\/maps?q=33.89643,35.70867",
        "Latitude":33.896468,
        "Longitude":35.70904
    },
    {
        "Name_EN":"Zalqa - Amaret Chalhoub",
        "Name_AR":"\u0627\u0644\u0632\u0644\u0642\u0627 - \u0639\u0645\u0627\u0631\u0629 \u0634\u0644\u0647\u0648\u0628",
        "Phone":"(03)889300",
        "Google_Map_Link":"http:\/\/maps.google.com\/maps?q=33.89723,35.57561",
        "Latitude":33.900696,
        "Longitude":35.573162
    },
    {
        "Name_EN":"Zikrit",
        "Name_AR":"\u0632\u0643\u0631\u064a\u062a",
        "Phone":"04930940",
        "Google_Map_Link":"http:\/\/maps.google.com\/maps?q=33.93587,35.63294",
        "Latitude":33.93827,
        "Longitude":35.63422
    },
    {
        "Name_EN":"Bhersaf - Saqeit El Misk",
        "Name_AR":"\u0628\u062d\u0631\u0635\u0627\u0641 - \u0633\u0627\u0642\u064a\u0629 \u0627\u0644\u0645\u0633\u0643",
        "Phone":"(04)980365",
        "Google_Map_Link":"http:\/\/maps.google.com\/maps?q=33.91469,35.66374",
        "Latitude":33.918303,
        "Longitude":35.676055
    },
    {
        "Name_EN":"Sinn el Fil",
        "Name_AR":"\u0633\u0646 \u0627\u0644\u0641\u064a\u0644",
        "Phone":"(01)511130",
        "Google_Map_Link":"http:\/\/maps.google.com\/maps?q=33.87735,35.53452",
        "Latitude":33.880191,
        "Longitude":35.537043
    },
    {
        "Name_EN":"Choueir - Ain Es Sindiane",
        "Name_AR":"\u0634\u0648\u064a\u0631 - \u0639\u064a\u0646 \u0627\u0644\u0633\u0646\u062f\u064a\u0627\u0646\u0629",
        "Phone":"(04)390019",
        "Google_Map_Link":"http:\/\/maps.google.com\/maps?q=33.91301,35.71328",
        "Latitude":33.911762,
        "Longitude":35.709188
    },
    {
        "Name_EN":"Dbaiye - Zouk el Kharab - Haret el Bellane - Aaoukar",
        "Name_AR":"\u0636\u0628\u064a\u0629 - \u0630\u0648\u0642 \u0627\u0644\u062e\u0631\u0627\u0628 - \u062d\u0627\u0631\u0629 \u0627\u0644\u0628\u0644\u0627\u0646\u0629 - \u0639\u0648\u0643\u0631",
        "Phone":"04540449",
        "Google_Map_Link":"http:\/\/maps.google.com\/maps?q=33.9433,35.59028",
        "Latitude":33.934259,
        "Longitude":35.597826
    },
    {
        "Name_EN":"Dahr Es Souane Meten",
        "Name_AR":"\u0636\u0647\u0631 \u0627\u0644\u0635\u0648\u0627\u0646 \u0627\u0644\u0645\u062a\u0646",
        "Phone":"(03)616415  (04)820702",
        "Google_Map_Link":"http:\/\/maps.google.com\/maps?q=33.90181,35.66377",
        "Latitude":33.899959,
        "Longitude":35.665811
    },
    {
        "Name_EN":"Aairoun",
        "Name_AR":"\u0639\u064a\u0631\u0648\u0646",
        "Phone":"(03)626100",
        "Google_Map_Link":"http:\/\/maps.google.com\/maps?q=33.90621,35.70385",
        "Latitude":33.908444,
        "Longitude":35.702683
    },
    {
        "Name_EN":"Ain Es Safsaf el meten -  Mar Mkhayel Bnabil",
        "Name_AR":"\u0639\u064a\u0646 \u0627\u0644\u0635\u0641\u0635\u0627\u0641 - \u0645\u0627\u0631 \u0645\u062e\u0627\u064a\u0644 \u0628\u0646\u0627\u0628\u064a\u0644",
        "Phone":"(03)815529",
        "Google_Map_Link":"http:\/\/maps.google.com\/maps?q=33.9112,35.72628",
        "Latitude":33.902166,
        "Longitude":35.734972
    },
    {
        "Name_EN":"Aintoura el meten",
        "Name_AR":"\u0639\u064a\u0646\u0637\u0648\u0631\u0629 \u0627\u0644\u0645\u062a\u0646",
        "Phone":"(04)380079    (03)250188",
        "Google_Map_Link":"http:\/\/maps.google.com\/maps?q=33.8852,35.77372",
        "Latitude":33.886216,
        "Longitude":35.773923
    },
    {
        "Name_EN":"Ouata El Mrouj - Ghabet Bolonia",
        "Name_AR":"\u0648\u0637\u0649 \u0627\u0644\u0645\u0631\u0648\u062c - \u063a\u0627\u0628\u0629 \u0628\u0648\u0644\u0648\u0646\u064a\u0627 ",
        "Phone":"03355525",
        "Google_Map_Link":"http:\/\/maps.google.com\/maps?q=33.91031,35.74156",
        "Latitude":33.908591,
        "Longitude":35.74482
    },
    {
        "Name_EN":"Fanar",
        "Name_AR":"\u0627\u0644\u0641\u0646\u0627\u0631",
        "Phone":"(01)893280   (01)891381",
        "Google_Map_Link":"http:\/\/maps.google.com\/maps?q=33.8778,35.57795",
        "Latitude":33.879477,
        "Longitude":35.57759
    },
    {
        "Name_EN":"Qornet Chahouane - Ain Aar - Beit El Koukko - Hbous",
        "Name_AR":"\u0642\u0631\u0646\u0629 \u0634\u0647\u0648\u0627\u0646 - \u0639\u064a\u0646 \u0639\u0627\u0631 - \u0628\u064a\u062a \u0627\u0644\u0643\u0643\u0648 -\u0627\u0644\u062d\u0628\u0648\u0633",
        "Phone":"(04)925013",
        "Google_Map_Link":"http:\/\/maps.google.com\/maps?q=33.91756,35.63884",
        "Latitude":33.920356,
        "Longitude":35.640281
    },
    {
        "Name_EN":"Qaaqour",
        "Name_AR":"\u0627\u0644\u0642\u0639\u0642\u0648\u0631",
        "Phone":"(04)296266",
        "Google_Map_Link":"http:\/\/maps.google.com\/maps?q=33.89258,35.71481",
        "Latitude":33.895349,
        "Longitude":35.723396
    },
    {
        "Name_EN":"Kfartay",
        "Name_AR":"\u0643\u0641\u0631\u062a\u064a\u0647 ",
        "Phone":"04715841",
        "Google_Map_Link":"http:\/\/maps.google.com\/maps?q=33.95553,35.76139",
        "Latitude":null,
        "Longitude":null
    },
    {
        "Name_EN":"Kfar Aaqab",
        "Name_AR":"\u0643\u0641\u0631\u0639\u0642\u0627\u0628",
        "Phone":"(04)280188",
        "Google_Map_Link":"http:\/\/maps.google.com\/maps?q=33.94527,35.74362",
        "Latitude":33.947213,
        "Longitude":35.741934
    },
    {
        "Name_EN":"Mar Chaaya - Mzakke",
        "Name_AR":"\u0645\u0627\u0631\u0634\u0639\u064a\u0627 -\u0627\u0644\u0645\u0632\u0643\u0647",
        "Phone":"04280218",
        "Google_Map_Link":"http:\/\/maps.google.com\/maps?q=33.893,35.65102",
        "Latitude":33.889154,
        "Longitude":35.648578
    },
    {
        "Name_EN":"Mar Mousa Ed Daouar",
        "Name_AR":"\u0645\u0627\u0631 \u0645\u0648\u0633\u0649 \u0627\u0644\u062f\u0648\u0627\u0631",
        "Phone":"04295283",
        "Google_Map_Link":"http:\/\/maps.google.com\/maps?q=33.90435,35.68672",
        "Latitude":33.902748,
        "Longitude":35.684381
    },
    {
        "Name_EN":"Mtein -  Mcheikha",
        "Name_AR":"\u0627\u0644\u0645\u062a\u064a\u0646 - \u0645\u0634\u064a\u062e\u0627",
        "Phone":"(04)296144",
        "Google_Map_Link":"http:\/\/maps.google.com\/maps?q=33.89147,35.74004",
        "Latitude":33.893333,
        "Longitude":35.745176
    },
    {
        "Name_EN":"Mrouj",
        "Name_AR":"\u0627\u0644\u0645\u0631\u0648\u062c",
        "Phone":"(04)295792",
        "Google_Map_Link":"http:\/\/maps.google.com\/maps?q=33.91154,35.75139",
        "Latitude":33.912756,
        "Longitude":35.759427
    },
    {
        "Name_EN":"Mazraat Yachoua",
        "Name_AR":"\u0645\u0632\u0631\u0639\u0629 \u064a\u0634\u0648\u0639",
        "Phone":"(04)926306",
        "Google_Map_Link":"http:\/\/maps.google.com\/maps?q=33.93165,35.63455",
        "Latitude":33.929448,
        "Longitude":35.634991
    },
    {
        "Name_EN":"Mansouriye - Mkalless - Daychouniye",
        "Name_AR":"\u0645\u0646\u0635\u0648\u0631\u064a\u0629 - \u0645\u0643\u0644\u0633 - \u062f\u064a\u0634\u0648\u0646\u064a\u0629",
        "Phone":"(04)400015",
        "Google_Map_Link":"http:\/\/maps.google.com\/maps?q=33.85739,35.5715",
        "Latitude":33.857994,
        "Longitude":35.56858
    },
    {
        "Name_EN":"Nabay",
        "Name_AR":"\u0646\u0627\u0628\u064a\u0647",
        "Phone":"(04)808881",
        "Google_Map_Link":"http:\/\/maps.google.com\/maps?q=33.89888,35.6202",
        "Latitude":33.900334,
        "Longitude":35.621128
    },
    {
        "Name_EN":"Majdel Tarchich",
        "Name_AR":"\u0645\u062c\u062f\u0644 \u062a\u0631\u0634\u064a\u0634",
        "Phone":"(03)290520",
        "Google_Map_Link":"http:\/\/maps.google.com\/maps?q=33.89464,35.80191",
        "Latitude":33.893449,
        "Longitude":35.805603
    },
    {
        "Name_EN":"Marjaba",
        "Name_AR":"\u0645\u0631\u062c\u0628\u0627",
        "Phone":"((04)295270",
        "Google_Map_Link":"http:\/\/maps.google.com\/maps?q=33.91616,35.75088",
        "Latitude":33.914026,
        "Longitude":35.756213
    },
    {
        "Name_EN":"Qennabet Broummana",
        "Name_AR":"\u0642\u0646\u0627\u0628\u0629 \u0628\u0631\u0645\u0627\u0646\u0627",
        "Phone":"04661941",
        "Google_Map_Link":"http:\/\/maps.google.com\/maps?q=33.89402,35.61692",
        "Latitude":33.893985,
        "Longitude":35.619525
    },
    {
        "Name_EN":"Ghabe",
        "Name_AR":"\u063a\u0627\u0628\u0629 \u0627\u0644\u0645\u0633\u0642\u0649",
        "Phone":"03305353",
        "Google_Map_Link":"http:\/\/maps.google.com\/maps?q=33.88286,35.645",
        "Latitude":null,
        "Longitude":null
    },
    {
        "Name_EN":"Aiyoun",
        "Name_AR":"\u0639\u064a\u0648\u0646 \u0627\u0644\u0645\u062a\u0646",
        "Phone":"04961809",
        "Google_Map_Link":"http:\/\/maps.google.com\/maps?q=33.8821,35.65226",
        "Latitude":33.882858,
        "Longitude":35.653281
    },
    {
        "Name_EN":"Dik El Mehdi - Deir Tamich",
        "Name_AR":"\u062f\u064a\u0643 \u0627\u0644\u0645\u062d\u062f\u064a - \u062f\u064a\u0631 \u0637\u0627\u0645\u064a\u0634",
        "Phone":"03146421",
        "Google_Map_Link":"http:\/\/maps.google.com\/maps?q=33.93253,35.62094",
        "Latitude":33.933622,
        "Longitude":35.621523
    },
    {
        "Name_EN":"Aatchane",
        "Name_AR":"\u0639\u0637\u0634\u0627\u0646\u0629",
        "Phone":"04986926",
        "Google_Map_Link":"http:\/\/maps.google.com\/maps?q=33.91461,35.65022",
        "Latitude":33.911886,
        "Longitude":35.648066
    },
    {
        "Name_EN":"Beit Meri ",
        "Name_AR":"\u0628\u064a\u062a \u0645\u0631\u064a ",
        "Phone":"(04)870702\/3",
        "Google_Map_Link":"http:\/\/maps.google.com\/maps?q=33.86328,35.60417",
        "Latitude":33.857583,
        "Longitude":35.600707
    },
    {
        "Name_EN":"Baabda",
        "Name_AR":"\u0628\u0639\u0628\u062f\u0627",
        "Phone":"(05)450198\/9",
        "Google_Map_Link":"http:\/\/maps.google.com\/maps?q=33.83494,35.54551",
        "Latitude":33.858906,
        "Longitude":35.5345
    },
    {
        "Name_EN":"Btekhnay",
        "Name_AR":"\u0628\u062a\u062e\u0646\u0627\u064a",
        "Phone":"(05)532100",
        "Google_Map_Link":"http:\/\/maps.google.com\/maps?q=33.84274,35.71869",
        "Latitude":33.843086,
        "Longitude":35.720926
    },
    {
        "Name_EN":"Borj el Brajne",
        "Name_AR":"\u0628\u0631\u062c \u0627\u0644\u0628\u0631\u0627\u062c\u0646\u0629",
        "Phone":"(01)472933\/4",
        "Google_Map_Link":"http:\/\/maps.google.com\/maps?q=33.84323,35.50326",
        "Latitude":33.841099,
        "Longitude":35.507098
    },
    {
        "Name_EN":"Bzebdine",
        "Name_AR":"\u0628\u0632\u0628\u062f\u064a\u0646",
        "Phone":"(05)360873",
        "Google_Map_Link":"http:\/\/maps.google.com\/maps?q=33.8735,35.73259",
        "Latitude":33.871432,
        "Longitude":35.731675
    },
    {
        "Name_EN":"Bsaba Baabda",
        "Name_AR":"\u0628\u0633\u0627\u0628\u0627  \u0628\u0639\u0628\u062f\u0627",
        "Phone":"(05)436020",
        "Google_Map_Link":"http:\/\/maps.google.com\/maps?q=33.8031,35.5416",
        "Latitude":33.807205,
        "Longitude":35.540469
    },
    {
        "Name_EN":"Boutchai - Merdache",
        "Name_AR":"\u0628\u0637\u0634\u064a\u0647 - \u0645\u0631\u062f\u0627\u0634\u0629",
        "Phone":"05922213",
        "Google_Map_Link":"http:\/\/maps.google.com\/maps?q=33.82662,35.54356",
        "Latitude":33.827001,
        "Longitude":35.543729
    },
    {
        "Name_EN":"Baalchmay",
        "Name_AR":"\u0628\u0639\u0644\u0634\u0645\u064a\u0647",
        "Phone":"(05)261024         (03)651382",
        "Google_Map_Link":"http:\/\/maps.google.com\/maps?q=33.81778,35.64575",
        "Latitude":33.812225,
        "Longitude":35.650613
    },
    {
        "Name_EN":"Tarchich",
        "Name_AR":"\u062a\u0631\u0634\u064a\u0634",
        "Phone":"(03)643764      (04)920497",
        "Google_Map_Link":"http:\/\/maps.google.com\/maps?q=33.87573,35.79625",
        "Latitude":33.874267,
        "Longitude":35.819108
    },
    {
        "Name_EN":"Jouar el Haouz",
        "Name_AR":"\u062c\u0648\u0627\u0631 \u0627\u0644\u062d\u0648\u0632",
        "Phone":"(03)286530",
        "Google_Map_Link":"http:\/\/maps.google.com\/maps?q=33.86335,35.75911",
        "Latitude":33.859776,
        "Longitude":35.75701
    },
    {
        "Name_EN":"Jouret Arsoun",
        "Name_AR":"\u062c\u0648\u0631\u0629 \u0627\u0631\u0635\u0648\u0646",
        "Phone":"(05)360324",
        "Google_Map_Link":"http:\/\/maps.google.com\/maps?q=33.85319,35.70796",
        "Latitude":33.852363,
        "Longitude":35.710455
    },
    {
        "Name_EN":"Hazmiye",
        "Name_AR":"\u062d\u0627\u0632\u0645\u064a\u0629 ",
        "Phone":"(05)920573  (05)920604",
        "Google_Map_Link":"http:\/\/maps.google.com\/maps?q=33.85258,35.53993",
        "Latitude":33.834578,
        "Longitude":35.54421
    },
    {
        "Name_EN":"Hasbaiya el Metn",
        "Name_AR":"\u062d\u0627\u0635\u0628\u064a\u0651\u0627 \u0627\u0644\u0645\u062a\u0646",
        "Phone":"(04)810047    (03)823232",
        "Google_Map_Link":"http:\/\/maps.google.com\/maps?q=33.87525,35.72073",
        "Latitude":33.873072,
        "Longitude":35.724483
    },
    {
        "Name_EN":"Hadet",
        "Name_AR":"\u062d\u062f\u062b",
        "Phone":"(05)462612   (05)462607",
        "Google_Map_Link":"http:\/\/maps.google.com\/maps?q=33.84376,35.53222",
        "Latitude":33.839683,
        "Longitude":35.530755
    },
    {
        "Name_EN":"Hammana",
        "Name_AR":"\u062d\u0645\u0627\u0646\u0627",
        "Phone":"(05)530049",
        "Google_Map_Link":"http:\/\/maps.google.com\/maps?q=33.82379,35.73628",
        "Latitude":33.824109,
        "Longitude":35.735756
    },
    {
        "Name_EN":"Khraibe Baabda",
        "Name_AR":"\u062e\u0631\u064a\u0628\u0629 \u0628\u0639\u0628\u062f\u0627",
        "Phone":"(05)370330    (03)612742",
        "Google_Map_Link":"http:\/\/maps.google.com\/maps?q=33.82607,35.7126",
        "Latitude":33.826432,
        "Longitude":35.714527
    },
    {
        "Name_EN":"Deir el Harf",
        "Name_AR":"\u062f\u064a\u0631 \u0627\u0644\u062d\u0631\u0641",
        "Phone":"(05)380216",
        "Google_Map_Link":"http:\/\/maps.google.com\/maps?q=33.84684,35.69398",
        "Latitude":33.847706,
        "Longitude":35.686181
    },
    {
        "Name_EN":"Ras el Harf",
        "Name_AR":"\u0631\u0627\u0633 \u0627\u0644\u062d\u0631\u0641",
        "Phone":"05261299",
        "Google_Map_Link":"http:\/\/maps.google.com\/maps?q=33.81157,35.6718",
        "Latitude":33.81391,
        "Longitude":35.672594
    },
    {
        "Name_EN":"Ras el Metn",
        "Name_AR":"\u0631\u0627\u0633 \u0627\u0644\u0645\u062a\u0646",
        "Phone":"(05)380357",
        "Google_Map_Link":"http:\/\/maps.google.com\/maps?q=33.84876,35.66516",
        "Latitude":33.849255,
        "Longitude":35.662793
    },
    {
        "Name_EN":"Rouisset el Ballout",
        "Name_AR":"\u0631\u0648\u064a\u0633\u0629 \u0627\u0644\u0628\u0644\u0648\u0637",
        "Phone":"(05)261070",
        "Google_Map_Link":"http:\/\/maps.google.com\/maps?q=33.82713,35.64404",
        "Latitude":33.827338,
        "Longitude":35.645789
    },
    {
        "Name_EN":"Chbaniye",
        "Name_AR":"\u0634\u0628\u0627\u0646\u064a\u0629",
        "Phone":"(05)370763",
        "Google_Map_Link":"http:\/\/maps.google.com\/maps?q=33.8203,35.70731",
        "Latitude":33.820715,
        "Longitude":35.707362
    },
    {
        "Name_EN":"Chiayah",
        "Name_AR":"\u0634\u064a\u0627\u062d",
        "Phone":"(01)276276",
        "Google_Map_Link":"http:\/\/maps.google.com\/maps?q=33.86337,35.51842",
        "Latitude":33.857547,
        "Longitude":35.520343
    },
    {
        "Name_EN":"Arayia",
        "Name_AR":"\u0639\u0627\u0631\u064a\u0627",
        "Phone":"(05)769342",
        "Google_Map_Link":"http:\/\/maps.google.com\/maps?q=33.83174,35.59102",
        "Latitude":33.832259,
        "Longitude":35.59147
    },
    {
        "Name_EN":"Aarbaniye - Dlaibe",
        "Name_AR":"\u0627\u0644\u0639\u0631\u0628\u0627\u0646\u064a\u0629 - \u0627\u0644\u062f\u0644\u064a\u0628\u0629",
        "Phone":"(04)830190",
        "Google_Map_Link":"http:\/\/maps.google.com\/maps?q=33.87783,35.67884",
        "Latitude":33.87778,
        "Longitude":35.682761
    },
    {
        "Name_EN":"Ghobeire",
        "Name_AR":"\u063a\u0628\u064a\u0631\u064a",
        "Phone":"(01)276170\/2",
        "Google_Map_Link":"http:\/\/maps.google.com\/maps?q=33.86113,35.51024",
        "Latitude":33.852777,
        "Longitude":35.50736
    },
    {
        "Name_EN":"Falougha",
        "Name_AR":"\u0641\u0627\u0644\u0648\u063a\u0627",
        "Phone":"05531744",
        "Google_Map_Link":"http:\/\/maps.google.com\/maps?q=33.83743,35.74098",
        "Latitude":33.83794,
        "Longitude":35.74086
    },
    {
        "Name_EN":"Furn ech Chebak",
        "Name_AR":"\u0641\u0631\u0646 \u0627\u0644\u0634\u0628\u0627\u0643",
        "Phone":"(01)282615    (01)288700",
        "Google_Map_Link":"http:\/\/maps.google.com\/maps?q=33.87278,35.52083",
        "Latitude":33.871997,
        "Longitude":35.523401
    },
    {
        "Name_EN":"Qoubbeiaa",
        "Name_AR":"\u0642\u0628\u064a\u0639",
        "Phone":"(05)370040\/1",
        "Google_Map_Link":"http:\/\/maps.google.com\/maps?q=33.81248,35.69579",
        "Latitude":33.813041,
        "Longitude":35.696361
    },
    {
        "Name_EN":"Qirtada",
        "Name_AR":"\u0642\u0631\u0637\u0627\u062f\u0629",
        "Phone":"05380465",
        "Google_Map_Link":"http:\/\/maps.google.com\/maps?q=33.86133,35.62928",
        "Latitude":33.859974,
        "Longitude":35.624114
    },
    {
        "Name_EN":"Qornayel",
        "Name_AR":"\u0642\u0631\u0646\u0627\u064a\u0644",
        "Phone":"05360749",
        "Google_Map_Link":"http:\/\/maps.google.com\/maps?q=33.85652,35.72509",
        "Latitude":null,
        "Longitude":null
    },
    {
        "Name_EN":"Qraiye",
        "Name_AR":"\u0642\u0631\u064a\u0629",
        "Phone":"(05)260969",
        "Google_Map_Link":"http:\/\/maps.google.com\/maps?q=33.80814,35.67643",
        "Latitude":33.806595,
        "Longitude":35.675533
    },
    {
        "Name_EN":"Qsaibe",
        "Name_AR":"\u0642\u0635\u064a\u0628\u0629",
        "Phone":"(04)830127",
        "Google_Map_Link":"http:\/\/maps.google.com\/maps?q=33.86741,35.6486",
        "Latitude":33.868764,
        "Longitude":35.650456
    },
    {
        "Name_EN":"Qalaa",
        "Name_AR":"\u0627\u0644\u0642\u0644\u0639\u0629",
        "Phone":"05530745,05531808,05808200",
        "Google_Map_Link":"http:\/\/maps.google.com\/maps?q=33.84077,35.72768",
        "Latitude":33.837372,
        "Longitude":35.726929
    },
    {
        "Name_EN":"Kfar Selouane",
        "Name_AR":"\u0643\u0641\u0631\u0633\u0644\u0648\u0627\u0646",
        "Phone":"(08)570002",
        "Google_Map_Link":"http:\/\/maps.google.com\/maps?q=33.85703,35.78173",
        "Latitude":33.856799,
        "Longitude":35.778614
    },
    {
        "Name_EN":"Kfarchima",
        "Name_AR":"\u0643\u0641\u0631\u0634\u064a\u0645\u0627",
        "Phone":"(05)430603",
        "Google_Map_Link":"http:\/\/maps.google.com\/maps?q=33.81689,35.53508",
        "Latitude":33.817652,
        "Longitude":35.530797
    },
    {
        "Name_EN":"Tahouitet el Ghadir - Lailake - Mraije",
        "Name_AR":"\u062a\u062d\u0648\u064a\u0637\u0629 \u0627\u0644\u063a\u062f\u064a\u0631 - \u0644\u064a\u0644\u0643\u064a - \u0645\u0631\u064a\u062c\u0629",
        "Phone":"01473102,01473101,01472058",
        "Google_Map_Link":"http:\/\/maps.google.com\/maps?q=33.82872,35.49532",
        "Latitude":33.83219,
        "Longitude":35.513835
    },
    {
        "Name_EN":"Ouadi Chahrour el Soufla",
        "Name_AR":"\u0648\u0627\u062f\u064a \u0634\u062d\u0631\u0648\u0631 \u0627\u0644\u0633\u0641\u0644\u0649",
        "Phone":"(05)940165",
        "Google_Map_Link":"http:\/\/maps.google.com\/maps?q=33.82178,35.55458",
        "Latitude":33.819798,
        "Longitude":35.551144
    },
    {
        "Name_EN":"Ouadi Chahrour el Olia",
        "Name_AR":"\u0648\u0627\u062f\u064a \u0634\u062d\u0631\u0648\u0631 \u0627\u0644\u0639\u0644\u064a\u0627",
        "Phone":"(05)940744",
        "Google_Map_Link":"http:\/\/maps.google.com\/maps?q=33.81892,35.56316",
        "Latitude":33.817167,
        "Longitude":35.558668
    },
    {
        "Name_EN":"Haret Hraik",
        "Name_AR":"\u062d\u0627\u0631\u0629 \u062d\u0631\u064a\u0643",
        "Phone":"03276170,03492946",
        "Google_Map_Link":"http:\/\/maps.google.com\/maps?q=33.8529,35.5088",
        "Latitude":null,
        "Longitude":null
    },
    {
        "Name_EN":"Haret es Set",
        "Name_AR":"\u062d\u0627\u0631\u0629 \u0627\u0644\u0633\u062a",
        "Phone":"05940421",
        "Google_Map_Link":"http:\/\/maps.google.com\/maps?q=33.82233,35.56464",
        "Latitude":33.821301,
        "Longitude":35.564598
    },
    {
        "Name_EN":"Arsoun",
        "Name_AR":"\u0627\u0631\u0635\u0648\u0646",
        "Phone":"(03)228684",
        "Google_Map_Link":"http:\/\/maps.google.com\/maps?q=33.86042,35.68956",
        "Latitude":33.860412,
        "Longitude":35.688737
    },
    {
        "Name_EN":"Chouit",
        "Name_AR":"\u0634\u0648\u064a\u062a",
        "Phone":"(05)769854",
        "Google_Map_Link":"http:\/\/maps.google.com\/maps?q=33.82864,35.60837",
        "Latitude":33.82417,
        "Longitude":35.60523
    },
    {
        "Name_EN":"Aabadiye",
        "Name_AR":"\u0639\u0628\u0627\u062f\u064a\u0629",
        "Phone":"(05)556317",
        "Google_Map_Link":"http:\/\/maps.google.com\/maps?q=33.83384,35.62051",
        "Latitude":33.837267,
        "Longitude":35.620735
    },
    {
        "Name_EN":"Bmariam",
        "Name_AR":"\u0628\u0645\u0631\u064a\u0645",
        "Phone":"(03)625072 (   05)530248",
        "Google_Map_Link":"http:\/\/maps.google.com\/maps?q=33.83206,35.71519",
        "Latitude":33.831105,
        "Longitude":35.718979
    },
    {
        "Name_EN":"Salima Baabda",
        "Name_AR":"\u0635\u0644\u064a\u0645\u0627 \u0628\u0639\u0628\u062f\u0627",
        "Phone":"04810030",
        "Google_Map_Link":"http:\/\/maps.google.com\/maps?q=33.87407,35.69455",
        "Latitude":33.873403,
        "Longitude":35.694023
    },
    {
        "Name_EN":"Aley",
        "Name_AR":"\u0639\u0627\u0644\u064a\u0647",
        "Phone":"(05)554001  (03)236400",
        "Google_Map_Link":"http:\/\/maps.google.com\/maps?q=33.81008,35.59639",
        "Latitude":33.807579,
        "Longitude":35.596648
    },
    {
        "Name_EN":"Ighmid",
        "Name_AR":"\u0627\u063a\u0645\u064a\u062f",
        "Phone":"(05)220505    (03)399340",
        "Google_Map_Link":"http:\/\/maps.google.com\/maps?q=33.765,35.69349",
        "Latitude":33.764492,
        "Longitude":35.696021
    },
    {
        "Name_EN":"Btater",
        "Name_AR":"\u0628\u062a\u0627\u062a\u0631",
        "Phone":"03766435",
        "Google_Map_Link":"http:\/\/maps.google.com\/maps?q=33.76876,35.62894",
        "Latitude":33.769442,
        "Longitude":35.632067
    },
    {
        "Name_EN":"Bhamdoun ed Dayaa",
        "Name_AR":"\u0628\u062d\u0645\u062f\u0648\u0646 \u0627\u0644\u0636\u064a\u0639\u0629",
        "Phone":"(05)260093",
        "Google_Map_Link":"http:\/\/maps.google.com\/maps?q=33.79659,35.64991",
        "Latitude":33.795747,
        "Longitude":35.650936
    },
    {
        "Name_EN":"Bhamdoun el Mhatta",
        "Name_AR":"\u0628\u062d\u0645\u062f\u0648\u0646 \u0627\u0644\u0645\u062d\u0637\u0629",
        "Phone":"(05)260146",
        "Google_Map_Link":"http:\/\/maps.google.com\/maps?q=33.80709,35.65928",
        "Latitude":33.807796,
        "Longitude":35.660203
    },
    {
        "Name_EN":"Bdedoun",
        "Name_AR":"\u0628\u062f\u0627\u062f\u0648\u0646",
        "Phone":"(05)941610",
        "Google_Map_Link":"http:\/\/maps.google.com\/maps?q=33.80774,35.56965",
        "Latitude":33.811854,
        "Longitude":35.562453
    },
    {
        "Name_EN":"Bedghane",
        "Name_AR":"\u0628\u062f\u063a\u0627\u0646",
        "Phone":"(03)860462",
        "Google_Map_Link":"http:\/\/maps.google.com\/maps?q=33.76792,35.66985",
        "Latitude":33.77172,
        "Longitude":35.672761
    },
    {
        "Name_EN":"Bsatine",
        "Name_AR":"\u0627\u0644\u0628\u0633\u0627\u062a\u064a\u0646",
        "Phone":"05410410",
        "Google_Map_Link":"http:\/\/maps.google.com\/maps?q=33.75728,35.52923",
        "Latitude":33.754365,
        "Longitude":35.525824
    },
    {
        "Name_EN":"Bsous",
        "Name_AR":"\u0628\u0633\u0648\u0633",
        "Phone":"(05)942628",
        "Google_Map_Link":"http:\/\/maps.google.com\/maps?q=33.81639,35.57697",
        "Latitude":33.818258,
        "Longitude":35.57836
    },
    {
        "Name_EN":"Bchamoun",
        "Name_AR":"\u0628\u0634\u0627\u0645\u0648\u0646",
        "Phone":"(05)270 982",
        "Google_Map_Link":"http:\/\/maps.google.com\/maps?q=33.78196,35.53068",
        "Latitude":33.781586,
        "Longitude":35.529694
    },
    {
        "Name_EN":"Bkhechtay",
        "Name_AR":"\u0628\u062e\u0634\u062a\u064a\u0647",
        "Phone":"(05)552960      (05)558960",
        "Google_Map_Link":"http:\/\/maps.google.com\/maps?q=33.79727,35.61973",
        "Latitude":33.797232,
        "Longitude":35.618422
    },
    {
        "Name_EN":"Btalloun",
        "Name_AR":"\u0628\u0637\u0644\u0648\u0646",
        "Phone":"05768724",
        "Google_Map_Link":"http:\/\/maps.google.com\/maps?q=33.79014,35.63663",
        "Latitude":33.791071,
        "Longitude":35.633085
    },
    {
        "Name_EN":"Blaibel",
        "Name_AR":"\u0628\u0644\u064a\u0628\u0644",
        "Phone":"(05)942735",
        "Google_Map_Link":"http:\/\/maps.google.com\/maps?q=33.80883,35.55482",
        "Latitude":33.808386,
        "Longitude":35.554249
    },
    {
        "Name_EN":"Bmekkine",
        "Name_AR":"\u0628\u0645\u0643\u064a\u0646",
        "Phone":"(05)270134",
        "Google_Map_Link":"http:\/\/maps.google.com\/maps?q=33.79976,35.56781",
        "Latitude":33.797168,
        "Longitude":35.569867
    },
    {
        "Name_EN":"Bmahray",
        "Name_AR":"\u0628\u0645\u0647\u0631\u064a\u0647",
        "Phone":"03748823",
        "Google_Map_Link":"http:\/\/maps.google.com\/maps?q=33.75671,35.71628",
        "Latitude":33.756602,
        "Longitude":35.719667
    },
    {
        "Name_EN":"Bnaiye",
        "Name_AR":"\u0627\u0644\u0628\u064a\u0646\u0647",
        "Phone":"05410256,05410023",
        "Google_Map_Link":"http:\/\/maps.google.com\/maps?q=33.73636,35.54496",
        "Latitude":null,
        "Longitude":null
    },
    {
        "Name_EN":"Baissour",
        "Name_AR":"\u0628\u064a\u0635\u0648\u0631",
        "Phone":"(05)570100   (05)571200",
        "Google_Map_Link":"http:\/\/maps.google.com\/maps?q=33.76441,35.56565",
        "Latitude":33.764606,
        "Longitude":35.566967
    },
    {
        "Name_EN":"Houmal",
        "Name_AR":"\u062d\u0648\u0645\u0627\u0644",
        "Phone":"05942794,01219104",
        "Google_Map_Link":"http:\/\/maps.google.com\/maps?q=33.81083,35.55565",
        "Latitude":33.810493,
        "Longitude":35.55674
    },
    {
        "Name_EN":"Dfoun",
        "Name_AR":"\u062f\u0641\u0648\u0646",
        "Phone":"03328289",
        "Google_Map_Link":"http:\/\/maps.google.com\/maps?q=33.74644,35.5612",
        "Latitude":33.747074,
        "Longitude":35.560628
    },
    {
        "Name_EN":"Deir Qoubil",
        "Name_AR":"\u062f\u064a\u0631 \u0642\u0648\u0628\u0644",
        "Phone":"(05)400412 \/413",
        "Google_Map_Link":"http:\/\/maps.google.com\/maps?q=33.79331,35.51622",
        "Latitude":33.796086,
        "Longitude":35.515087
    },
    {
        "Name_EN":"Rechmaiya",
        "Name_AR":" \u0631\u0634\u0645\u064a\u0627 ",
        "Phone":"(05)280291",
        "Google_Map_Link":"http:\/\/maps.google.com\/maps?q=33.73731,35.59771",
        "Latitude":33.736764,
        "Longitude":35.596151
    },
    {
        "Name_EN":"Remhala",
        "Name_AR":"\u0631\u0645\u062d\u0627\u0644\u0627",
        "Phone":"(05)410801",
        "Google_Map_Link":"http:\/\/maps.google.com\/maps?q=33.73888,35.56359",
        "Latitude":33.741753,
        "Longitude":35.561951
    },
    {
        "Name_EN":"Ramliye",
        "Name_AR":" \u0631\u0645\u0644\u064a\u0629 ",
        "Phone":"(05)280044",
        "Google_Map_Link":"http:\/\/maps.google.com\/maps?q=33.74809,35.6494",
        "Latitude":33.7476,
        "Longitude":35.651043
    },
    {
        "Name_EN":"Rouisset en Naamane",
        "Name_AR":" \u0631\u0648\u064a\u0633\u0629 \u0627\u0644\u0646\u0639\u0645\u0627\u0646 ",
        "Phone":"(03)666247",
        "Google_Map_Link":"http:\/\/maps.google.com\/maps?q=33.75449,35.60153",
        "Latitude":33.754796,
        "Longitude":35.602318
    },
    {
        "Name_EN":"Souq el Gharb",
        "Name_AR":"\u0633\u0648\u0642 \u0627\u0644\u063a\u0631\u0628",
        "Phone":"(05)270171",
        "Google_Map_Link":"http:\/\/maps.google.com\/maps?q=33.78811,35.56166",
        "Latitude":33.793171,
        "Longitude":35.564946
    },
    {
        "Name_EN":"Charoun",
        "Name_AR":"\u0634\u0627\u0631\u0648\u0646",
        "Phone":"(05)290606",
        "Google_Map_Link":"http:\/\/maps.google.com\/maps?q=33.77173,35.68662",
        "Latitude":33.784545,
        "Longitude":35.693843
    },
    {
        "Name_EN":"Chanay",
        "Name_AR":"\u0634\u0627\u0646\u064a\u0647",
        "Phone":"(05)260223",
        "Google_Map_Link":"http:\/\/maps.google.com\/maps?q=33.78782,35.65968",
        "Latitude":33.78709,
        "Longitude":35.662255
    },
    {
        "Name_EN":"Chartoun",
        "Name_AR":"\u0634\u0631\u062a\u0648\u0646",
        "Phone":"(05)285080",
        "Google_Map_Link":"http:\/\/maps.google.com\/maps?q=33.74334,35.57939",
        "Latitude":33.746101,
        "Longitude":35.582389
    },
    {
        "Name_EN":"Chemlane",
        "Name_AR":"\u0634\u0645\u0644\u0627\u0646",
        "Phone":"05270295,05271295",
        "Google_Map_Link":"http:\/\/maps.google.com\/maps?q=33.77976,35.54198",
        "Latitude":33.779298,
        "Longitude":35.547348
    },
    {
        "Name_EN":"Choueifat",
        "Name_AR":"\u0627\u0644\u0634\u0648\u064a\u0641\u0627\u062a",
        "Phone":"(05)430019",
        "Google_Map_Link":"http:\/\/maps.google.com\/maps?q=33.80338,35.51853",
        "Latitude":33.810754,
        "Longitude":35.518472
    },
    {
        "Name_EN":"Sofar",
        "Name_AR":" \u0635\u0648\u0641\u0631 ",
        "Phone":"(05)290227    (05)290229",
        "Google_Map_Link":"http:\/\/maps.google.com\/maps?q=33.80221,35.70234",
        "Latitude":33.802714,
        "Longitude":35.696748
    },
    {
        "Name_EN":"Aaramoun",
        "Name_AR":"\u0639\u0631\u0645\u0648\u0646",
        "Phone":"(05)410325",
        "Google_Map_Link":"http:\/\/maps.google.com\/maps?q=33.76045,35.51751",
        "Latitude":33.764919,
        "Longitude":35.506161
    },
    {
        "Name_EN":"Aitat",
        "Name_AR":"\u0639\u064a\u062a\u0627\u062a",
        "Phone":"(05)270634",
        "Google_Map_Link":"http:\/\/maps.google.com\/maps?q=33.79383,35.55774",
        "Latitude":33.790958,
        "Longitude":35.555987
    },
    {
        "Name_EN":"Ainab",
        "Name_AR":"\u0639\u064a\u0646\u0627\u0628",
        "Phone":"(05)410866",
        "Google_Map_Link":"http:\/\/maps.google.com\/maps?q=33.76729,35.54808",
        "Latitude":33.764074,
        "Longitude":35.543762
    },
    {
        "Name_EN":"Ain ej Jdide",
        "Name_AR":"\u0639\u064a\u0646 \u0627\u0644\u062c\u062f\u064a\u062f\u0629",
        "Phone":"(05)551881",
        "Google_Map_Link":"http:\/\/maps.google.com\/maps?q=33.80613,35.62633",
        "Latitude":33.806499,
        "Longitude":35.628023
    },
    {
        "Name_EN":"Ain Al Saydeh",
        "Name_AR":" \u0639\u064a\u0646 \u0627\u0644\u0633\u064a\u062f\u0629",
        "Phone":"03631160",
        "Google_Map_Link":"http:\/\/maps.google.com\/maps?q=33.80052,35.57999",
        "Latitude":null,
        "Longitude":null
    },
    {
        "Name_EN":"Mazraat Al Souaydane",
        "Name_AR":"\u0645\u0632\u0631\u0639\u0629 \u0622\u0644 \u0633\u0648\u064a\u062f\u0627\u0646 ",
        "Phone":null,
        "Google_Map_Link":"http:\/\/maps.google.com\/maps?q=33.977151,36.067628 ",
        "Latitude":null,
        "Longitude":null
    },
    {
        "Name_EN":"Ain er Remmane",
        "Name_AR":"\u0639\u064a\u0646 \u0627\u0644\u0631\u0645\u0627\u0646\u0629",
        "Phone":"(05)271603",
        "Google_Map_Link":"http:\/\/maps.google.com\/maps?q=33.80485,35.58672",
        "Latitude":33.801082,
        "Longitude":35.5855
    },
    {
        "Name_EN":"Ain Anoub",
        "Name_AR":"\u0639\u064a\u0646 \u0639\u0646\u0648\u0628",
        "Phone":"(05)271387",
        "Google_Map_Link":"http:\/\/maps.google.com\/maps?q=33.78892,35.54282",
        "Latitude":33.787945,
        "Longitude":35.541752
    },
    {
        "Name_EN":"Ain Ksour",
        "Name_AR":"\u0639\u064a\u0646 \u0643\u0633\u0648\u0631",
        "Phone":"(03)525554",
        "Google_Map_Link":"http:\/\/maps.google.com\/maps?q=33.74917,35.53114",
        "Latitude":33.749543,
        "Longitude":35.534728
    },
    {
        "Name_EN":"Qmatiye",
        "Name_AR":"\u0642\u0645\u0627\u0637\u064a\u0629 ",
        "Phone":"(05)271179",
        "Google_Map_Link":"http:\/\/maps.google.com\/maps?q=33.80278,35.57696",
        "Latitude":33.802428,
        "Longitude":35.576116
    },
    {
        "Name_EN":"Kahale",
        "Name_AR":"\u0627\u0644\u0643\u062d\u0627\u0644\u0647",
        "Phone":"05769620,05769620",
        "Google_Map_Link":"http:\/\/maps.google.com\/maps?q=33.82423,35.58653",
        "Latitude":null,
        "Longitude":null
    },
    {
        "Name_EN":"Kfar Aamaiy",
        "Name_AR":"\u0643\u0641\u0631\u0639\u0645\u064a\u0647",
        "Phone":"03914135",
        "Google_Map_Link":"http:\/\/maps.google.com\/maps?q=33.7675,35.5913",
        "Latitude":33.766314,
        "Longitude":35.591712
    },
    {
        "Name_EN":"Kaifoun",
        "Name_AR":"\u0643\u064a\u0641\u0648\u0646",
        "Phone":"(01)271136",
        "Google_Map_Link":"http:\/\/maps.google.com\/maps?q=33.78003,35.55768",
        "Latitude":33.781676,
        "Longitude":35.559086
    },
    {
        "Name_EN":"Mejdel Baana",
        "Name_AR":" \u0645\u062c\u062f\u0644 \u0628\u0639\u0646\u0627 ",
        "Phone":"05290874",
        "Google_Map_Link":"http:\/\/maps.google.com\/maps?q=33.78003,35.66753",
        "Latitude":33.798133,
        "Longitude":35.680692
    },
    {
        "Name_EN":"Majdalaya",
        "Name_AR":"\u0645\u062c\u062f\u0644\u064a\u0627",
        "Phone":"03555669",
        "Google_Map_Link":"http:\/\/maps.google.com\/maps?q=33.75545,35.57195",
        "Latitude":null,
        "Longitude":null
    },
    {
        "Name_EN":"Mechrefe",
        "Name_AR":" \u0645\u0634\u0631\u0641\u0647 ",
        "Phone":"(05)559880",
        "Google_Map_Link":"http:\/\/maps.google.com\/maps?q=33.75876,35.65499",
        "Latitude":33.760117,
        "Longitude":35.657415
    },
    {
        "Name_EN":"Mansouriye bhamdoun - Ain el Marj",
        "Name_AR":" \u0645\u0646\u0635\u0648\u0631\u064a\u0629 \u0628\u062d\u0645\u062f\u0648\u0646 - \u0639\u064a\u0646 \u0627\u0644\u0645\u0631\u062c",
        "Phone":"(03)612266    (08)543333",
        "Google_Map_Link":"http:\/\/maps.google.com\/maps?q=33.78023,35.62649",
        "Latitude":33.780124,
        "Longitude":35.627062
    },
    {
        "Name_EN":"Baaouerta",
        "Name_AR":"\u0628\u0639\u0648\u0631\u062a\u0647",
        "Phone":"05211700",
        "Google_Map_Link":"http:\/\/maps.google.com\/maps?q=33.73923,35.50131",
        "Latitude":33.739135,
        "Longitude":35.48715
    },
    {
        "Name_EN":"Rejme",
        "Name_AR":" \u0631\u062c\u0645\u0629 ",
        "Phone":"03710996",
        "Google_Map_Link":"http:\/\/maps.google.com\/maps?q=33.78669,35.61026",
        "Latitude":33.786585,
        "Longitude":35.611111
    },
    {
        "Name_EN":"Taazniye",
        "Name_AR":" \u062a\u0639\u0632\u0627\u0646\u064a\u0629 ",
        "Phone":"03820064",
        "Google_Map_Link":"http:\/\/maps.google.com\/maps?q=33.78234,35.62227",
        "Latitude":33.78184,
        "Longitude":35.620921
    },
    {
        "Name_EN":"Aabey - Ain Drafil  ",
        "Name_AR":"\u0639\u0628\u064a\u0647 - \u0639\u064a\u0646 \u062f\u0631\u0627\u0641\u064a\u0644",
        "Phone":"03637359",
        "Google_Map_Link":"http:\/\/maps.google.com\/maps?q=33.73511,35.52976",
        "Latitude":33.738494,
        "Longitude":35.523148
    },
    {
        "Name_EN":"Kfar Matta",
        "Name_AR":"\u0643\u0641\u0631\u0645\u062a\u0649",
        "Phone":"(05)210120",
        "Google_Map_Link":"http:\/\/maps.google.com\/maps?q=33.72701,35.52665",
        "Latitude":33.726461,
        "Longitude":35.529686
    },
    {
        "Name_EN":"Ghaboun",
        "Name_AR":"\u0627\u0644\u063a\u0627\u0628\u0648\u0646",
        "Phone":"(05)270295",
        "Google_Map_Link":"http:\/\/maps.google.com\/maps?q=33.78177,35.59082",
        "Latitude":33.781862,
        "Longitude":35.592918
    },
    {
        "Name_EN":"Daqqoun",
        "Name_AR":"\u062f\u0642\u0648\u0646",
        "Phone":"70107785",
        "Google_Map_Link":"http:\/\/maps.google.com\/maps?q=33.73258,35.51148",
        "Latitude":33.727436,
        "Longitude":35.503077
    },
    {
        "Name_EN":"Beit ed Dine",
        "Name_AR":"\u0628\u064a\u062a \u0627\u0644\u062f\u064a\u0646",
        "Phone":"(05)500023",
        "Google_Map_Link":"http:\/\/maps.google.com\/maps?q=33.69467,35.58166",
        "Latitude":33.695567,
        "Longitude":35.581368
    },
    {
        "Name_EN":"Bater",
        "Name_AR":"\u0628\u0627\u062a\u0631",
        "Phone":"(05)330052",
        "Google_Map_Link":"http:\/\/maps.google.com\/maps?q=33.60243,35.61692",
        "Latitude":33.602713,
        "Longitude":35.616689
    },
    {
        "Name_EN":"Barouk - Fraidiss",
        "Name_AR":"\u0627\u0644\u0628\u0627\u0631\u0648\u0643 - \u0641\u0631\u064a\u062f\u064a\u0633 \u0627\u0644\u0634\u0648\u0641",
        "Phone":"(05)240222",
        "Google_Map_Link":"http:\/\/maps.google.com\/maps?q=33.70424,35.67796",
        "Latitude":33.705273,
        "Longitude":35.679586
    },
    {
        "Name_EN":"Batloun",
        "Name_AR":"\u0628\u062a\u0644\u0648\u0646",
        "Phone":"03215826",
        "Google_Map_Link":"http:\/\/maps.google.com\/maps?q=33.69615,35.6499",
        "Latitude":33.69705,
        "Longitude":35.654378
    },
    {
        "Name_EN":"Barja",
        "Name_AR":"\u0628\u0631\u062c\u0627",
        "Phone":"(07)623586",
        "Google_Map_Link":"http:\/\/maps.google.com\/maps?q=33.64966,35.44176",
        "Latitude":33.65154,
        "Longitude":35.444485
    },
    {
        "Name_EN":"Bsaba",
        "Name_AR":"\u0628\u0633\u0627\u0628\u0627",
        "Phone":"(03)703910",
        "Google_Map_Link":"http:\/\/maps.google.com\/maps?q=33.60441,35.55222",
        "Latitude":33.606558,
        "Longitude":35.558808
    },
    {
        "Name_EN":"Bchatfine",
        "Name_AR":"\u0628\u0634\u062a\u0641\u064a\u0646",
        "Phone":"(03)212044",
        "Google_Map_Link":"http:\/\/maps.google.com\/maps?q=33.71266,35.55396",
        "Latitude":33.715123,
        "Longitude":35.556319
    },
    {
        "Name_EN":"Boutme",
        "Name_AR":"\u0628\u0637\u0645\u0629",
        "Phone":"05310290",
        "Google_Map_Link":"http:\/\/maps.google.com\/maps?q=33.66416,35.6207",
        "Latitude":33.668572,
        "Longitude":35.637197
    },
    {
        "Name_EN":"Baasir",
        "Name_AR":"\u0628\u0639\u0627\u0635\u064a\u0631",
        "Phone":"(07)920120",
        "Google_Map_Link":"http:\/\/maps.google.com\/maps?q=33.65851,35.44715",
        "Latitude":33.659113,
        "Longitude":35.450403
    },
    {
        "Name_EN":"Baadarane",
        "Name_AR":"\u0628\u0639\u062f\u0631\u0627\u0646",
        "Phone":"(05)311321",
        "Google_Map_Link":"http:\/\/maps.google.com\/maps?q=33.63634,35.61814",
        "Latitude":33.637766,
        "Longitude":35.618875
    },
    {
        "Name_EN":"Baaqline",
        "Name_AR":"\u0628\u0639\u0642\u0644\u064a\u0646",
        "Phone":"(05)306016   (05)300528",
        "Google_Map_Link":"http:\/\/maps.google.com\/maps?q=33.67884,35.55791",
        "Latitude":33.678373,
        "Longitude":35.557777
    },
    {
        "Name_EN":"Bire",
        "Name_AR":"\u0628\u064a\u0631\u0629 ",
        "Phone":"(03)182226",
        "Google_Map_Link":"http:\/\/maps.google.com\/maps?q=33.72166,35.63798",
        "Latitude":33.721701,
        "Longitude":35.636941
    },
    {
        "Name_EN":"Jahliye",
        "Name_AR":"\u062c\u0627\u0647\u0644\u064a\u0629",
        "Phone":"(05)720807",
        "Google_Map_Link":"http:\/\/maps.google.com\/maps?q=33.66834,35.51058",
        "Latitude":33.667254,
        "Longitude":35.511484
    },
    {
        "Name_EN":"Jbaa",
        "Name_AR":"\u062c\u0628\u0627\u0639",
        "Phone":"(05)330015",
        "Google_Map_Link":"http:\/\/maps.google.com\/maps?q=33.61326,35.62846",
        "Latitude":33.612115,
        "Longitude":35.62814
    },
    {
        "Name_EN":"Jadra",
        "Name_AR":"\u062c\u062f\u0631\u0627",
        "Phone":"(07)971955\/ 6",
        "Google_Map_Link":"http:\/\/maps.google.com\/maps?q=33.63204,35.40604",
        "Latitude":33.627688,
        "Longitude":35.402585
    },
    {
        "Name_EN":"Jdaide chouf",
        "Name_AR":"\u062c\u062f\u064a\u062f\u0629 \u0627\u0644\u0634\u0648\u0641",
        "Phone":"05507130",
        "Google_Map_Link":"http:\/\/maps.google.com\/maps?q=33.66553,35.60593",
        "Latitude":33.667545,
        "Longitude":35.604803
    },
    {
        "Name_EN":"Joun",
        "Name_AR":"\u062c\u0648\u0646",
        "Phone":"(07)975393",
        "Google_Map_Link":"http:\/\/maps.google.com\/maps?q=33.58378,35.45901",
        "Latitude":33.582509,
        "Longitude":35.460581
    },
    {
        "Name_EN":"Jiye",
        "Name_AR":"\u062c\u064a\u0629",
        "Phone":"(07)995911",
        "Google_Map_Link":"http:\/\/maps.google.com\/maps?q=33.66744,35.42508",
        "Latitude":33.674671,
        "Longitude":35.423636
    },
    {
        "Name_EN":"Haret Jandal",
        "Name_AR":"\u062d\u0627\u0631\u0629 \u062c\u0646\u062f\u0644",
        "Phone":"(03)847766",
        "Google_Map_Link":"http:\/\/maps.google.com\/maps?q=33.62829,35.60798",
        "Latitude":33.628646,
        "Longitude":35.605728
    },
    {
        "Name_EN":"Hasrout",
        "Name_AR":"\u062d\u0635\u0631\u0648\u062a",
        "Phone":"(07)980164",
        "Google_Map_Link":"http:\/\/maps.google.com\/maps?q=33.62922,35.53133",
        "Latitude":33.628875,
        "Longitude":35.539102
    },
    {
        "Name_EN":"Khraibe chouf",
        "Name_AR":"\u062e\u0631\u064a\u0628\u0629 \u0627\u0644\u0634\u0648\u0641",
        "Phone":"(05)310298",
        "Google_Map_Link":"http:\/\/maps.google.com\/maps?q=33.64853,35.64306",
        "Latitude":33.649555,
        "Longitude":35.638556
    },
    {
        "Name_EN":"Daraiya",
        "Name_AR":"\u062f\u0627\u0631\u064a\u0627 \u0627\u0644\u0634\u0648\u0641",
        "Phone":"(07)242048",
        "Google_Map_Link":"http:\/\/maps.google.com\/maps?q=33.63997,35.50549",
        "Latitude":33.641151,
        "Longitude":35.510806
    },
    {
        "Name_EN":"Damour",
        "Name_AR":"\u0627\u0644\u062f\u0627\u0645\u0648\u0631",
        "Phone":"(05)600930",
        "Google_Map_Link":"http:\/\/maps.google.com\/maps?q=33.73074,35.45689",
        "Latitude":33.728005,
        "Longitude":35.456107
    },
    {
        "Name_EN":"Dibbiye",
        "Name_AR":"\u062f\u0628\u064a\u0629",
        "Phone":"(07)985400",
        "Google_Map_Link":"http:\/\/maps.google.com\/maps?q=33.66555,35.48837",
        "Latitude":33.664949,
        "Longitude":35.488941
    },
    {
        "Name_EN":"Dalhoun",
        "Name_AR":"\u062f\u0644\u0647\u0648\u0646",
        "Phone":"(07)970408",
        "Google_Map_Link":"http:\/\/maps.google.com\/maps?q=33.62663,35.46717",
        "Latitude":33.627042,
        "Longitude":35.467034
    },
    {
        "Name_EN":"Dmit",
        "Name_AR":"\u062f\u0645\u064a\u062a",
        "Phone":"(05)720885",
        "Google_Map_Link":"http:\/\/maps.google.com\/maps?q=33.69132,35.51105",
        "Latitude":33.690804,
        "Longitude":35.507398
    },
    {
        "Name_EN":"Deir Dourite",
        "Name_AR":"\u062f\u064a\u0631 \u062f\u0648\u0631\u064a\u062a",
        "Phone":"(03)286168",
        "Google_Map_Link":"http:\/\/maps.google.com\/maps?q=33.68523,35.54354",
        "Latitude":33.685997,
        "Longitude":35.545279
    },
    {
        "Name_EN":"Deir el Qamar",
        "Name_AR":"\u062f\u064a\u0631 \u0627\u0644\u0642\u0645\u0631",
        "Phone":"(05)505624     (03)677150",
        "Google_Map_Link":"http:\/\/maps.google.com\/maps?q=33.69618,35.56112",
        "Latitude":33.697861,
        "Longitude":35.564397
    },
    {
        "Name_EN":"Deir Qouche",
        "Name_AR":"\u062f\u064a\u0631 \u0643\u0648\u0634\u0647",
        "Phone":"05340304",
        "Google_Map_Link":"http:\/\/maps.google.com\/maps?q=33.7206,35.56208",
        "Latitude":33.719047,
        "Longitude":35.565664
    },
    {
        "Name_EN":"Rmaile",
        "Name_AR":"\u0631\u0645\u064a\u0644\u0629 ",
        "Phone":"(07)990600",
        "Google_Map_Link":"http:\/\/maps.google.com\/maps?q=33.60681,35.40398",
        "Latitude":33.60977,
        "Longitude":35.40084
    },
    {
        "Name_EN":"Zaarouriye",
        "Name_AR":"\u0632\u0639\u0631\u0648\u0631\u064a\u0629",
        "Phone":"(03)340329",
        "Google_Map_Link":"http:\/\/maps.google.com\/maps?q=33.61473,35.51979",
        "Latitude":33.613089,
        "Longitude":35.519083
    },
    {
        "Name_EN":"Sibline",
        "Name_AR":"\u0633\u0628\u0644\u064a\u0646",
        "Phone":"(07)791270 \/ 272    (03)209913",
        "Google_Map_Link":"http:\/\/maps.google.com\/maps?q=33.62349,35.43388",
        "Latitude":33.620123,
        "Longitude":35.43418
    },
    {
        "Name_EN":"Sirjbal",
        "Name_AR":"\u0633\u0631\u062c\u0628\u0627\u0644",
        "Phone":"(05)720005",
        "Google_Map_Link":"http:\/\/maps.google.com\/maps?q=33.68263,35.51364",
        "Latitude":33.683463,
        "Longitude":35.513186
    },
    {
        "Name_EN":"Samqaniye",
        "Name_AR":"\u0633\u0645\u0642\u0627\u0646\u064a\u0629",
        "Phone":"(05)507109",
        "Google_Map_Link":"http:\/\/maps.google.com\/maps?q=33.67929,35.58623",
        "Latitude":33.67885,
        "Longitude":35.587631
    },
    {
        "Name_EN":"Chhim",
        "Name_AR":"\u0634\u062d\u064a\u0645",
        "Phone":"(07)240010",
        "Google_Map_Link":"http:\/\/maps.google.com\/maps?q=33.62305,35.48502",
        "Latitude":33.628078,
        "Longitude":35.495261
    },
    {
        "Name_EN":"Dahr el Mghara",
        "Name_AR":"\u0636\u0647\u0631 \u0627\u0644\u0645\u063a\u0627\u0631\u0629",
        "Phone":"(07)985173",
        "Google_Map_Link":"http:\/\/maps.google.com\/maps?q=33.68102,35.44771",
        "Latitude":33.680079,
        "Longitude":35.449341
    },
    {
        "Name_EN":"Aanout",
        "Name_AR":"\u0639\u0627\u0646\u0648\u062a",
        "Phone":"(07)241055",
        "Google_Map_Link":"http:\/\/maps.google.com\/maps?q=33.63076,35.51342",
        "Latitude":33.628195,
        "Longitude":35.516511
    },
    {
        "Name_EN":"Aatrine",
        "Name_AR":"\u0639\u062a\u0631\u064a\u0646",
        "Phone":"(05)303240",
        "Google_Map_Link":"http:\/\/maps.google.com\/maps?q=33.66279,35.56767",
        "Latitude":33.663726,
        "Longitude":35.567115
    },
    {
        "Name_EN":"Aammatour",
        "Name_AR":"\u0639\u0645\u0651\u0627\u0637\u0648\u0631",
        "Phone":"(05)311105",
        "Google_Map_Link":"http:\/\/maps.google.com\/maps?q=33.64077,35.60877",
        "Latitude":33.643278,
        "Longitude":35.608142
    },
    {
        "Name_EN":"Aammiq chouf",
        "Name_AR":"\u0639\u0645\u064a\u0642 \u0627\u0644\u0634\u0648\u0641",
        "Phone":"03867740",
        "Google_Map_Link":"http:\/\/maps.google.com\/maps?q=33.71751,35.58144",
        "Latitude":33.718995,
        "Longitude":35.583764
    },
    {
        "Name_EN":"Ain Bal",
        "Name_AR":"\u0639\u064a\u0646\u0628\u0627\u0644",
        "Phone":"(07)306110",
        "Google_Map_Link":"http:\/\/maps.google.com\/maps?q=33.66197,35.56038",
        "Latitude":33.664378,
        "Longitude":35.564063
    },
    {
        "Name_EN":"Ain Zhalta",
        "Name_AR":"\u0639\u064a\u0646 \u0632\u062d\u0644\u062a\u0627",
        "Phone":"(05)230152",
        "Google_Map_Link":"http:\/\/maps.google.com\/maps?q=33.74088,35.69927",
        "Latitude":33.740733,
        "Longitude":35.701415
    },
    {
        "Name_EN":"Ain Ouzain",
        "Name_AR":"\u0639\u064a\u0646 \u0648\u0632\u064a\u0646",
        "Phone":"(05)508101",
        "Google_Map_Link":"http:\/\/maps.google.com\/maps?q=33.67559,35.62106",
        "Latitude":33.676955,
        "Longitude":35.621473
    },
    {
        "Name_EN":"Ain Qeni",
        "Name_AR":"\u0639\u064a\u0646 \u0642\u0646\u064a",
        "Phone":"(03)696466",
        "Google_Map_Link":"http:\/\/maps.google.com\/maps?q=33.64955,35.60953",
        "Latitude":33.649991,
        "Longitude":35.611579
    },
    {
        "Name_EN":"Gharife",
        "Name_AR":"\u063a\u0631\u064a\u0641\u0629",
        "Phone":"(05)306366",
        "Google_Map_Link":"http:\/\/maps.google.com\/maps?q=33.63735,35.55275",
        "Latitude":33.642622,
        "Longitude":35.551545
    },
    {
        "Name_EN":"Faouarat Jaafar",
        "Name_AR":"\u0641\u0648\u0627\u0631\u0629 \u062c\u0639\u0641\u0631",
        "Phone":"03507224",
        "Google_Map_Link":"http:\/\/maps.google.com\/maps?q=33.71092,35.63906",
        "Latitude":null,
        "Longitude":null
    },
    {
        "Name_EN":"Ketermaya",
        "Name_AR":"\u0643\u062a\u0631\u0645\u0627\u064a\u0627",
        "Phone":"(07)971132",
        "Google_Map_Link":"http:\/\/maps.google.com\/maps?q=33.61587,35.44734",
        "Latitude":33.616451,
        "Longitude":35.448363
    },
    {
        "Name_EN":"Kahlouniye chouf",
        "Name_AR":"\u0643\u062d\u0644\u0648\u0646\u064a\u0629 \u0627\u0644\u0634\u0648\u0641",
        "Phone":"(03)320322",
        "Google_Map_Link":"http:\/\/maps.google.com\/maps?q=33.64988,35.5895",
        "Latitude":33.649167,
        "Longitude":35.588592
    },
    {
        "Name_EN":"Kfar Him",
        "Name_AR":"\u0643\u0641\u0631\u062d\u064a\u0645",
        "Phone":"(05)720001",
        "Google_Map_Link":"http:\/\/maps.google.com\/maps?q=33.68822,35.52334",
        "Latitude":33.687525,
        "Longitude":35.521491
    },
    {
        "Name_EN":"Kfar Qatra",
        "Name_AR":"\u0643\u0641\u0631\u0642\u0637\u0631\u0629",
        "Phone":"(05)500322",
        "Google_Map_Link":"http:\/\/maps.google.com\/maps?q=33.71175,35.5873",
        "Latitude":33.712781,
        "Longitude":35.589922
    },
    {
        "Name_EN":"Kfar Nabrakh",
        "Name_AR":"\u0643\u0641\u0631\u0646\u0628\u0631\u062e",
        "Phone":"(05)507344",
        "Google_Map_Link":"http:\/\/maps.google.com\/maps?q=33.69885,35.63032",
        "Latitude":33.696301,
        "Longitude":35.620635
    },
    {
        "Name_EN":"Kfar Niss",
        "Name_AR":"\u0643\u0641\u0631\u0646\u064a\u0633",
        "Phone":"03238292",
        "Google_Map_Link":"http:\/\/maps.google.com\/maps?q=33.73823,35.64045",
        "Latitude":null,
        "Longitude":null
    },
    {
        "Name_EN":"Knisse chouf",
        "Name_AR":"\u0643\u0646\u064a\u0633\u0629 \u0627\u0644\u0634\u0648\u0641",
        "Phone":"03882816",
        "Google_Map_Link":"http:\/\/maps.google.com\/maps?q=33.72007,35.57325",
        "Latitude":33.720175,
        "Longitude":35.574182
    },
    {
        "Name_EN":"Majdel el Meouch",
        "Name_AR":"\u0645\u062c\u062f\u0644 \u0627\u0644\u0645\u0639\u0648\u0634",
        "Phone":"(05)250302",
        "Google_Map_Link":"http:\/\/maps.google.com\/maps?q=33.72436,35.62216",
        "Latitude":33.724647,
        "Longitude":35.623533
    },
    {
        "Name_EN":"Moukhtara",
        "Name_AR":"\u0645\u062e\u062a\u0627\u0631\u0629",
        "Phone":"(05)311234",
        "Google_Map_Link":"http:\/\/maps.google.com\/maps?q=33.65775,35.61475",
        "Latitude":33.657908,
        "Longitude":35.613543
    },
    {
        "Name_EN":"Mristi",
        "Name_AR":"\u0645\u0631\u0633\u062a\u0649",
        "Phone":"05533083",
        "Google_Map_Link":"http:\/\/maps.google.com\/maps?q=33.6226,35.6452",
        "Latitude":33.62177,
        "Longitude":35.649709
    },
    {
        "Name_EN":"Mazboud",
        "Name_AR":"\u0645\u0632\u0628\u0648\u062f",
        "Phone":"(07)970190",
        "Google_Map_Link":"http:\/\/maps.google.com\/maps?q=33.61061,35.47874",
        "Latitude":33.611089,
        "Longitude":35.479638
    },
    {
        "Name_EN":"Mazraat ech Chouf",
        "Name_AR":"\u0645\u0632\u0631\u0639\u0629 \u0627\u0644\u0634\u0648\u0641",
        "Phone":"(05)320475",
        "Google_Map_Link":"http:\/\/maps.google.com\/maps?q=33.64139,35.58662",
        "Latitude":33.646997,
        "Longitude":35.583321
    },
    {
        "Name_EN":"Mazraat ed Dahr",
        "Name_AR":"\u0645\u0632\u0631\u0639\u0629 \u0627\u0644\u0636\u0647\u0631",
        "Phone":"(03)305057",
        "Google_Map_Link":"http:\/\/maps.google.com\/maps?q=33.59498,35.51597",
        "Latitude":33.595866,
        "Longitude":35.517599
    },
    {
        "Name_EN":"Mechref",
        "Name_AR":"\u0645\u0634\u0631\u0641",
        "Phone":"(03)257854",
        "Google_Map_Link":"http:\/\/maps.google.com\/maps?q=33.71289,35.46731",
        "Latitude":33.706525,
        "Longitude":35.480095
    },
    {
        "Name_EN":"Mtoulle ",
        "Name_AR":"\u0645\u0637\u0644\u0647 ",
        "Phone":"03508484",
        "Google_Map_Link":"http:\/\/maps.google.com\/maps?q=33.61189,35.53806",
        "Latitude":33.61191,
        "Longitude":35.538613
    },
    {
        "Name_EN":"Maaser Beit ed Dine",
        "Name_AR":"\u0645\u0639\u0627\u0635\u0631 \u0628\u064a\u062a \u0627\u0644\u062f\u064a\u0646",
        "Phone":"(05)500114",
        "Google_Map_Link":"http:\/\/maps.google.com\/maps?q=33.70089,35.59563",
        "Latitude":33.699376,
        "Longitude":35.599163
    },
    {
        "Name_EN":"Maasser ech Chouf",
        "Name_AR":"\u0645\u0639\u0627\u0635\u0631 \u0627\u0644\u0634\u0648\u0641",
        "Phone":"(03)308877         (05)350380",
        "Google_Map_Link":"http:\/\/maps.google.com\/maps?q=33.66721,35.67026",
        "Latitude":33.667217,
        "Longitude":35.670553
    },
    {
        "Name_EN":"Mghairiye Chouf",
        "Name_AR":"\u0645\u063a\u064a\u0631\u064a\u0629 \u00a0\u0627\u0644\u0634\u0648\u0641",
        "Phone":"(07)970262",
        "Google_Map_Link":"http:\/\/maps.google.com\/maps?q=33.60316,35.45668",
        "Latitude":33.603355,
        "Longitude":35.462686
    },
    {
        "Name_EN":"Naame Haret en Naame",
        "Name_AR":"\u0646\u0627\u0639\u0645\u0629 \u0648 \u062d\u0627\u0631\u0629 \u0627\u0644\u0646\u0627\u0639\u0645\u0629",
        "Phone":"(05)601083",
        "Google_Map_Link":"http:\/\/maps.google.com\/maps?q=33.74724,35.46486",
        "Latitude":33.746936,
        "Longitude":35.461933
    },
    {
        "Name_EN":"Niha",
        "Name_AR":"\u0646\u064a\u062d\u0627",
        "Phone":"(05)330002",
        "Google_Map_Link":"http:\/\/maps.google.com\/maps?q=33.59484,35.62299",
        "Latitude":33.59505,
        "Longitude":35.624889
    },
    {
        "Name_EN":"Ouadi es Sitt",
        "Name_AR":"\u0648\u0627\u062f\u064a \u0627\u0644\u0633\u062a",
        "Phone":"(03)530529",
        "Google_Map_Link":"http:\/\/maps.google.com\/maps?q=33.7144,35.62926",
        "Latitude":33.71455,
        "Longitude":35.631092
    },
    {
        "Name_EN":"Quardaniye",
        "Name_AR":"\u0648\u0631\u062f\u0627\u0646\u064a\u0647",
        "Phone":"03654025",
        "Google_Map_Link":"http:\/\/maps.google.com\/maps?q=33.61306,35.43167",
        "Latitude":33.613246,
        "Longitude":35.433404
    },
    {
        "Name_EN":"Ouarhaniye",
        "Name_AR":"\u0648\u0631\u0647\u0627\u0646\u064a\u0629",
        "Phone":"(05)240133",
        "Google_Map_Link":"http:\/\/maps.google.com\/maps?q=33.71806,35.66959",
        "Latitude":33.721464,
        "Longitude":35.671637
    },
    {
        "Name_EN":"Kfar Faqoud",
        "Name_AR":"\u0643\u0641\u0631\u0641\u0627\u0642\u0648\u062f",
        "Phone":"05720185,05720236",
        "Google_Map_Link":"http:\/\/maps.google.com\/maps?q=33.70044,35.53221",
        "Latitude":null,
        "Longitude":null
    },
    {
        "Name_EN":"Brih ",
        "Name_AR":"\u0628\u0631\u064a\u062d",
        "Phone":"03077382",
        "Google_Map_Link":"http:\/\/maps.google.com\/maps?q=33.71631,35.65749",
        "Latitude":33.716233,
        "Longitude":35.658427
    },
    {
        "Name_EN":"Borjein",
        "Name_AR":"\u0627\u0644\u0628\u0631\u062c\u064a\u0646",
        "Phone":"03231272",
        "Google_Map_Link":"http:\/\/maps.google.com\/maps?q=33.65803,35.48686",
        "Latitude":33.657377,
        "Longitude":35.486682
    },
    {
        "Name_EN":"Ain el Haour",
        "Name_AR":"\u0639\u064a\u0646 \u0627\u0644\u062d\u0648\u0631",
        "Phone":"03309785",
        "Google_Map_Link":"http:\/\/maps.google.com\/maps?q=33.66025,35.49539",
        "Latitude":33.660332,
        "Longitude":35.496365
    },
    {
        "Name_EN":"Zahle Maalaqa ",
        "Name_AR":"\u0632\u062d\u0644\u0629 \u0645\u0639\u0644\u0642\u0629 ",
        "Phone":"08820222",
        "Google_Map_Link":"http:\/\/maps.google.com\/maps?q=33.8442,35.91681",
        "Latitude":33.843644,
        "Longitude":35.901052
    },
    {
        "Name_EN":"Ablah",
        "Name_AR":"\u0627\u0628\u0644\u062d",
        "Phone":"(03)656830   (03)888186",
        "Google_Map_Link":"http:\/\/maps.google.com\/maps?q=33.8673,35.96346",
        "Latitude":33.867606,
        "Longitude":35.965015
    },
    {
        "Name_EN":"Bar Elias",
        "Name_AR":"\u0628\u0631 \u0627\u0644\u064a\u0627\u0633",
        "Phone":"(08)510016",
        "Google_Map_Link":"http:\/\/maps.google.com\/maps?q=33.77637,35.90329",
        "Latitude":33.773856,
        "Longitude":35.900115
    },
    {
        "Name_EN":"Bouarej",
        "Name_AR":"\u0628\u0648\u0627\u0631\u062c",
        "Phone":"(03)621882",
        "Google_Map_Link":"http:\/\/maps.google.com\/maps?q=33.82029,35.81554",
        "Latitude":33.818707,
        "Longitude":35.812983
    },
    {
        "Name_EN":"Terbol",
        "Name_AR":"\u062a\u0631\u0628\u0644",
        "Phone":"(08)955585  (08)955588",
        "Google_Map_Link":"http:\/\/maps.google.com\/maps?q=33.81783,35.98273",
        "Latitude":33.819626,
        "Longitude":35.984181
    },
    {
        "Name_EN":"Taalabaya",
        "Name_AR":"\u062a\u0639\u0644\u0628\u0627\u064a\u0627",
        "Phone":"(08)505915",
        "Google_Map_Link":"http:\/\/maps.google.com\/maps?q=33.81631,35.86291",
        "Latitude":33.81899,
        "Longitude":35.870103
    },
    {
        "Name_EN":"Taanayel",
        "Name_AR":"\u062a\u0639\u0646\u0627\u064a\u0644",
        "Phone":"(08)540683  (03)261839",
        "Google_Map_Link":"http:\/\/maps.google.com\/maps?q=33.80112,35.86871",
        "Latitude":33.798645,
        "Longitude":35.867888
    },
    {
        "Name_EN":"Jdita",
        "Name_AR":"\u062c\u062f\u064a\u062a\u0627",
        "Phone":"(08)540331  (03)700972",
        "Google_Map_Link":"http:\/\/maps.google.com\/maps?q=33.82427,35.83697",
        "Latitude":33.82567,
        "Longitude":35.835118
    },
    {
        "Name_EN":"Haouch Moussa Anjar",
        "Name_AR":"\u062d\u0648\u0634 \u0645\u0648\u0633\u0649 \u0639\u0646\u062c\u0631",
        "Phone":"(08)620790   (08)620791",
        "Google_Map_Link":"http:\/\/maps.google.com\/maps?q=33.72643,35.93463",
        "Latitude":33.726713,
        "Longitude":35.929616
    },
    {
        "Name_EN":"Raait",
        "Name_AR":"\u0631\u0639\u064a\u062a",
        "Phone":"(03)809578",
        "Google_Map_Link":"http:\/\/maps.google.com\/maps?q=33.83097,36.04497",
        "Latitude":33.829989,
        "Longitude":36.043662
    },
    {
        "Name_EN":"Deir el Ghazal",
        "Name_AR":"\u062f\u064a\u0631 \u0627\u0644\u063a\u0632\u0627\u0644",
        "Phone":"(03)653098",
        "Google_Map_Link":"http:\/\/maps.google.com\/maps?q=33.82446,36.03363",
        "Latitude":33.826689,
        "Longitude":36.032822
    },
    {
        "Name_EN":"Haret el Fikani ",
        "Name_AR":"\u062d\u0627\u0631\u0629 \u0627\u0644\u0641\u064a\u0643\u0627\u0646\u064a",
        "Phone":"03887864",
        "Google_Map_Link":"http:\/\/maps.google.com\/maps?q=33.84885,36.02771",
        "Latitude":33.8483,
        "Longitude":36.029626
    },
    {
        "Name_EN":"Rayak - Houch Hala",
        "Name_AR":"\u0631\u064a\u0627\u0642 - \u062d\u0648\u0634 \u062d\u0627\u0644\u0627",
        "Phone":"08900021",
        "Google_Map_Link":"http:\/\/maps.google.com\/maps?q=33.84917,36.01116",
        "Latitude":33.850454,
        "Longitude":36.025993
    },
    {
        "Name_EN":"Saadnayel",
        "Name_AR":"\u0633\u0639\u062f\u0646\u0627\u064a\u0644",
        "Phone":"(08)506955",
        "Google_Map_Link":"http:\/\/maps.google.com\/maps?q=33.82045,35.88187",
        "Latitude":33.822202,
        "Longitude":35.879104
    },
    {
        "Name_EN":"Chtaura",
        "Name_AR":"\u0634\u062a\u0648\u0631\u0627",
        "Phone":"(08)540276",
        "Google_Map_Link":"http:\/\/maps.google.com\/maps?q=33.81518,35.85221",
        "Latitude":33.81503,
        "Longitude":35.853706
    },
    {
        "Name_EN":"Aali en Nahri",
        "Name_AR":"\u0639\u0644\u064a \u0627\u0644\u0646\u0647\u0631\u064a",
        "Phone":"(08)920065",
        "Google_Map_Link":"http:\/\/maps.google.com\/maps?q=33.85621,36.02676",
        "Latitude":33.857517,
        "Longitude":36.025476
    },
    {
        "Name_EN":"Fourzol",
        "Name_AR":"\u0641\u0631\u0632\u0644 ",
        "Phone":"(08)950129",
        "Google_Map_Link":"http:\/\/maps.google.com\/maps?q=33.87474,35.94246",
        "Latitude":33.874962,
        "Longitude":35.943069
    },
    {
        "Name_EN":"Qaa er Rim",
        "Name_AR":"\u0642\u0627\u0639 \u0627\u0644\u0631\u064a\u0645",
        "Phone":"(08)817731",
        "Google_Map_Link":"http:\/\/maps.google.com\/maps?q=33.88418,35.87422",
        "Latitude":33.878437,
        "Longitude":35.877452
    },
    {
        "Name_EN":"Qabb Elias",
        "Name_AR":"\u0642\u0628 \u0627\u0644\u064a\u0627\u0633",
        "Phone":"(08)500721\/2",
        "Google_Map_Link":"http:\/\/maps.google.com\/maps?q=33.79432,35.82027",
        "Latitude":33.79437,
        "Longitude":35.819694
    },
    {
        "Name_EN":"Koussaya",
        "Name_AR":"\u0642\u0648\u0633\u0627\u064a\u0627",
        "Phone":"(08)925090",
        "Google_Map_Link":"http:\/\/maps.google.com\/maps?q=33.81292,36.02411",
        "Latitude":33.813349,
        "Longitude":36.02498
    },
    {
        "Name_EN":"Kfar Zabad",
        "Name_AR":"\u0643\u0641\u0631 \u0632\u0628\u062f",
        "Phone":"(08)925331",
        "Google_Map_Link":"http:\/\/maps.google.com\/maps?q=33.78565,35.99363",
        "Latitude":33.779159,
        "Longitude":35.984644
    },
    {
        "Name_EN":"Majdel Anjar",
        "Name_AR":"\u0645\u062c\u062f\u0644 \u0639\u0646\u062c\u0631",
        "Phone":"(08)621300  (08)621190",
        "Google_Map_Link":"http:\/\/maps.google.com\/maps?q=33.70948,35.90498",
        "Latitude":33.705188,
        "Longitude":35.904752
    },
    {
        "Name_EN":"Mreijat",
        "Name_AR":"\u0645\u0631\u064a\u062c\u0627\u062a",
        "Phone":"(08)545464",
        "Google_Map_Link":"http:\/\/maps.google.com\/maps?q=33.80866,35.81707",
        "Latitude":33.808186,
        "Longitude":35.814484
    },
    {
        "Name_EN":"Meksi",
        "Name_AR":"\u0645\u0643\u0633\u0629",
        "Phone":"(08)544742",
        "Google_Map_Link":"http:\/\/maps.google.com\/maps?q=33.81042,35.83105",
        "Latitude":33.809764,
        "Longitude":35.831021
    },
    {
        "Name_EN":"Nabi Aila",
        "Name_AR":"\u0646\u0628\u064a \u0627\u064a\u0644\u0627",
        "Phone":"(08)950955",
        "Google_Map_Link":"http:\/\/maps.google.com\/maps?q=33.88147,35.95372",
        "Latitude":33.881306,
        "Longitude":35.954268
    },
    {
        "Name_EN":"Niha zahle",
        "Name_AR":"\u0646\u064a\u062d\u0627 \u0632\u062d\u0644\u0629",
        "Phone":"(08)951154",
        "Google_Map_Link":"http:\/\/maps.google.com\/maps?q=33.89058,35.97409",
        "Latitude":33.892804,
        "Longitude":35.964389
    },
    {
        "Name_EN":"Massa",
        "Name_AR":"\u0645\u0633\u0627",
        "Phone":"08920570",
        "Google_Map_Link":"http:\/\/maps.google.com\/maps?q=33.85068,36.06653",
        "Latitude":null,
        "Longitude":null
    },
    {
        "Name_EN":"Ain Kfar Zabad",
        "Name_AR":"\u0639\u064a\u0646 \u0643\u0641\u0631 \u0632\u0628\u062f",
        "Phone":"03084684",
        "Google_Map_Link":"http:\/\/maps.google.com\/maps?q=33.79576,36.00521",
        "Latitude":33.795142,
        "Longitude":36.005027
    },
    {
        "Name_EN":"Hazerta",
        "Name_AR":"\u062d\u0632\u0631\u062a\u0627",
        "Phone":"08803040",
        "Google_Map_Link":"http:\/\/maps.google.com\/maps?q=33.87912,35.86679",
        "Latitude":33.863229,
        "Longitude":35.874527
    },
    {
        "Name_EN":"Baalbek",
        "Name_AR":"\u0628\u0639\u0644\u0628\u0643",
        "Phone":"(08)370214    (08)377653",
        "Google_Map_Link":"http:\/\/maps.google.com\/maps?q=34.00519,36.20796",
        "Latitude":34.006298,
        "Longitude":36.208301
    },
    {
        "Name_EN":"Iaat",
        "Name_AR":"\u0627\u064a\u0639\u0627\u062a",
        "Phone":"(08)379122",
        "Google_Map_Link":"http:\/\/maps.google.com\/maps?q=34.03692,36.17142",
        "Latitude":34.038023,
        "Longitude":36.174451
    },
    {
        "Name_EN":"Betdaai",
        "Name_AR":"\u0628\u062a\u062f\u0639\u064a",
        "Phone":"03901235",
        "Google_Map_Link":"http:\/\/maps.google.com\/maps?q=34.11268,36.10774",
        "Latitude":34.112127,
        "Longitude":36.107389
    },
    {
        "Name_EN":"Bednayel",
        "Name_AR":"\u0628\u062f\u0646\u0627\u064a\u0644",
        "Phone":"(08)910803",
        "Google_Map_Link":"http:\/\/maps.google.com\/maps?q=33.9187,36.00438",
        "Latitude":33.912047,
        "Longitude":36.007952
    },
    {
        "Name_EN":"Barqa",
        "Name_AR":"\u0628\u0631\u0642\u0627",
        "Phone":"03756703",
        "Google_Map_Link":"http:\/\/maps.google.com\/maps?q=34.17157,36.14117",
        "Latitude":34.171644,
        "Longitude":36.142171
    },
    {
        "Name_EN":"Britel",
        "Name_AR":"\u0628\u0631\u064a\u062a\u0627\u0644",
        "Phone":"03352925",
        "Google_Map_Link":"http:\/\/maps.google.com\/maps?q=33.93472,36.15115",
        "Latitude":33.934956,
        "Longitude":36.176592
    },
    {
        "Name_EN":"Bechouat",
        "Name_AR":"\u0628\u0634\u0648\u0627\u062a",
        "Phone":"08221330",
        "Google_Map_Link":"http:\/\/maps.google.com\/maps?q=34.15036,36.13434",
        "Latitude":34.15053,
        "Longitude":36.136626
    },
    {
        "Name_EN":"Boudai",
        "Name_AR":"\u0628\u0648\u062f\u0627\u064a",
        "Phone":"(03)266511",
        "Google_Map_Link":"http:\/\/maps.google.com\/maps?q=34.06152,36.05921",
        "Latitude":34.087763,
        "Longitude":36.063536
    },
    {
        "Name_EN":"Tammine et Tahta",
        "Name_AR":"\u062a\u0645\u0646\u064a\u0646 \u0627\u0644\u062a\u062d\u062a\u0627",
        "Phone":"(08)910487",
        "Google_Map_Link":"http:\/\/maps.google.com\/maps?q=33.88339,35.98998",
        "Latitude":33.887121,
        "Longitude":35.989757
    },